transmission_timestamp,doa_timestamp,time_delta_ms,transmission,message,peak_angle_deg,original_peak_angle_deg,doa_pool_method,doa_pool_window_rows,doa_pool_source_row_start,doa_pool_source_row_end,gps_timestamp,gps_time_delta_ms,gps_time_usec,gps_lat_deg,gps_lon_deg,gps_alt_msl_m,gps_speed_ms,gps_cog_deg,doa_0,doa_1,doa_2,doa_3,doa_4,doa_5,doa_6,doa_7,doa_8,doa_9,doa_10,doa_11,doa_12,doa_13,doa_14,doa_15,doa_16,doa_17,doa_18,doa_19,doa_20,doa_21,doa_22,doa_23,doa_24,doa_25,doa_26,doa_27,doa_28,doa_29,doa_30,doa_31,doa_32,doa_33,doa_34,doa_35,doa_36,doa_37,doa_38,doa_39,doa_40,doa_41,doa_42,doa_43,doa_44,doa_45,doa_46,doa_47,doa_48,doa_49,doa_50,doa_51,doa_52,doa_53,doa_54,doa_55,doa_56,doa_57,doa_58,doa_59,doa_60,doa_61,doa_62,doa_63,doa_64,doa_65,doa_66,doa_67,doa_68,doa_69,doa_70,doa_71,doa_72,doa_73,doa_74,doa_75,doa_76,doa_77,doa_78,doa_79,doa_80,doa_81,doa_82,doa_83,doa_84,doa_85,doa_86,doa_87,doa_88,doa_89,doa_90,doa_91,doa_92,doa_93,doa_94,doa_95,doa_96,doa_97,doa_98,doa_99,doa_100,doa_101,doa_102,doa_103,doa_104,doa_105,doa_106,doa_107,doa_108,doa_109,doa_110,doa_111,doa_112,doa_113,doa_114,doa_115,doa_116,doa_117,doa_118,doa_119,doa_120,doa_121,doa_122,doa_123,doa_124,doa_125,doa_126,doa_127,doa_128,doa_129,doa_130,doa_131,doa_132,doa_133,doa_134,doa_135,doa_136,doa_137,doa_138,doa_139,doa_140,doa_141,doa_142,doa_143,doa_144,doa_145,doa_146,doa_147,doa_148,doa_149,doa_150,doa_151,doa_152,doa_153,doa_154,doa_155,doa_156,doa_157,doa_158,doa_159,doa_160,doa_161,doa_162,doa_163,doa_164,doa_165,doa_166,doa_167,doa_168,doa_169,doa_170,doa_171,doa_172,doa_173,doa_174,doa_175,doa_176,doa_177,doa_178,doa_179,doa_180,doa_181,doa_182,doa_183,doa_184,doa_185,doa_186,doa_187,doa_188,doa_189,doa_190,doa_191,doa_192,doa_193,doa_194,doa_195,doa_196,doa_197,doa_198,doa_199,doa_200,doa_201,doa_202,doa_203,doa_204,doa_205,doa_206,doa_207,doa_208,doa_209,doa_210,doa_211,doa_212,doa_213,doa_214,doa_215,doa_216,doa_217,doa_218,doa_219,doa_220,doa_221,doa_222,doa_223,doa_224,doa_225,doa_226,doa_227,doa_228,doa_229,doa_230,doa_231,doa_232,doa_233,doa_234,doa_235,doa_236,doa_237,doa_238,doa_239,doa_240,doa_241,doa_242,doa_243,doa_244,doa_245,doa_246,doa_247,doa_248,doa_249,doa_250,doa_251,doa_252,doa_253,doa_254,doa_255,doa_256,doa_257,doa_258,doa_259,doa_260,doa_261,doa_262,doa_263,doa_264,doa_265,doa_266,doa_267,doa_268,doa_269,doa_270,doa_271,doa_272,doa_273,doa_274,doa_275,doa_276,doa_277,doa_278,doa_279,doa_280,doa_281,doa_282,doa_283,doa_284,doa_285,doa_286,doa_287,doa_288,doa_289,doa_290,doa_291,doa_292,doa_293,doa_294,doa_295,doa_296,doa_297,doa_298,doa_299,doa_300,doa_301,doa_302,doa_303,doa_304,doa_305,doa_306,doa_307,doa_308,doa_309,doa_310,doa_311,doa_312,doa_313,doa_314,doa_315,doa_316,doa_317,doa_318,doa_319,doa_320,doa_321,doa_322,doa_323,doa_324,doa_325,doa_326,doa_327,doa_328,doa_329,doa_330,doa_331,doa_332,doa_333,doa_334,doa_335,doa_336,doa_337,doa_338,doa_339,doa_340,doa_341,doa_342,doa_343,doa_344,doa_345,doa_346,doa_347,doa_348,doa_349,doa_350,doa_351,doa_352,doa_353,doa_354,doa_355,doa_356,doa_357,doa_358,doa_359
07:43:57.107,07:43:57.147,40,,,284,76.0,mean,1,38,38,2026-06-18T07:43:57.111,4,921664000,-33.7606398,150.7432722,55.54,0.03,199.53,1.98,2.07,2.15,2.23,2.32,2.4,2.49,2.57,2.66,2.74,2.82,2.9,2.98,3.05,3.12,3.19,3.25,3.31,3.37,3.42,3.46,3.5,3.54,3.56,3.59,3.6,3.61,3.62,3.62,3.61,3.6,3.58,3.55,3.52,3.49,3.44,3.4,3.35,3.29,3.23,3.17,3.1,3.03,2.96,2.89,2.81,2.73,2.66,2.58,2.5,2.42,2.34,2.26,2.18,2.1,2.02,1.95,1.88,1.81,1.74,1.68,1.62,1.56,1.5,1.45,1.4,1.36,1.32,1.29,1.26,1.23,1.21,1.2,1.19,1.19,1.19,1.19,1.2,1.22,1.24,1.27,1.3,1.34,1.39,1.44,1.49,1.55,1.62,1.69,1.76,1.84,1.93,2.01,2.11,2.2,2.29,2.39,2.49,2.59,2.69,2.79,2.89,2.98,3.08,3.17,3.25,3.33,3.4,3.46,3.52,3.57,3.61,3.64,3.66,3.67,3.67,3.66,3.65,3.62,3.59,3.55,3.5,3.45,3.39,3.33,3.26,3.19,3.12,3.05,2.97,2.9,2.83,2.75,2.68,2.61,2.54,2.48,2.41,2.35,2.29,2.24,2.18,2.13,2.08,2.03,1.99,1.94,1.9,1.86,1.82,1.78,1.75,1.71,1.68,1.64,1.61,1.57,1.53,1.5,1.46,1.42,1.39,1.35,1.31,1.27,1.23,1.18,1.14,1.1,1.05,1.01,0.96,0.92,0.87,0.82,0.78,0.73,0.68,0.64,0.6,0.55,0.51,0.47,0.43,0.39,0.35,0.31,0.28,0.25,0.22,0.19,0.16,0.14,0.11,0.09,0.08,0.06,0.04,0.03,0.02,0.01,0.01,0,0,0,0,0,0.01,0.01,0.02,0.03,0.04,0.05,0.07,0.08,0.1,0.11,0.13,0.15,0.17,0.19,0.21,0.23,0.25,0.28,0.3,0.33,0.36,0.39,0.42,0.45,0.48,0.52,0.56,0.6,0.64,0.68,0.73,0.78,0.83,0.89,0.95,1.01,1.08,1.15,1.23,1.31,1.4,1.49,1.59,1.69,1.8,1.92,2.04,2.17,2.3,2.45,2.6,2.75,2.92,3.09,3.27,3.46,3.65,3.85,4.06,4.28,4.5,4.72,4.95,5.19,5.43,5.66,5.9,6.13,6.35,6.57,6.77,6.96,7.13,7.27,7.39,7.48,7.54,7.57,7.56,7.52,7.45,7.35,7.22,7.06,6.89,6.7,6.49,6.27,6.05,5.82,5.59,5.35,5.12,4.89,4.67,4.44,4.23,4.02,3.81,3.62,3.43,3.24,3.07,2.9,2.74,2.58,2.43,2.29,2.16,2.04,1.92,1.81,1.7,1.6,1.51,1.43,1.35,1.27,1.21,1.15,1.09,1.04,1,0.96,0.93,0.91,0.88,0.87,0.86,0.85,0.85,0.86,0.87,0.88,0.9,0.92,0.95,0.99,1.02,1.06,1.11,1.16,1.21,1.26,1.32,1.39,1.45,1.52,1.59,1.67,1.74,1.82,1.9
07:45:28.360,07:45:28.367,7,B,"{""TYPE"": ""LOG"", ""EVENT"": ""NOTE"", ""PAYLOAD"": ""B"", ""REPEAT"": 50, ""INTERVAL"": 1.0, ""SCHEDULE"": FALSE, ""NOTE"": ""DRONE IN POSITION""}",284,76.0,mean,1,949,949,2026-06-18T07:45:28.314,-46,1012865000,-33.7602529,150.7432515,58.88,0.04,277.12,1.98,2.07,2.15,2.23,2.32,2.4,2.49,2.57,2.66,2.74,2.82,2.9,2.98,3.05,3.12,3.19,3.25,3.31,3.37,3.42,3.46,3.5,3.54,3.56,3.59,3.6,3.61,3.62,3.62,3.61,3.6,3.58,3.55,3.52,3.49,3.44,3.4,3.35,3.29,3.23,3.17,3.1,3.03,2.96,2.89,2.81,2.73,2.66,2.58,2.5,2.42,2.34,2.26,2.18,2.1,2.02,1.95,1.88,1.81,1.74,1.68,1.62,1.56,1.5,1.45,1.4,1.36,1.32,1.29,1.26,1.23,1.21,1.2,1.19,1.19,1.19,1.19,1.2,1.22,1.24,1.27,1.3,1.34,1.39,1.44,1.49,1.55,1.62,1.69,1.76,1.84,1.93,2.01,2.11,2.2,2.29,2.39,2.49,2.59,2.69,2.79,2.89,2.98,3.08,3.17,3.25,3.33,3.4,3.46,3.52,3.57,3.61,3.64,3.66,3.67,3.67,3.66,3.65,3.62,3.59,3.55,3.5,3.45,3.39,3.33,3.26,3.19,3.12,3.05,2.97,2.9,2.83,2.75,2.68,2.61,2.54,2.48,2.41,2.35,2.29,2.24,2.18,2.13,2.08,2.03,1.99,1.94,1.9,1.86,1.82,1.78,1.75,1.71,1.68,1.64,1.61,1.57,1.53,1.5,1.46,1.42,1.39,1.35,1.31,1.27,1.23,1.18,1.14,1.1,1.05,1.01,0.96,0.92,0.87,0.82,0.78,0.73,0.68,0.64,0.6,0.55,0.51,0.47,0.43,0.39,0.35,0.31,0.28,0.25,0.22,0.19,0.16,0.14,0.11,0.09,0.08,0.06,0.04,0.03,0.02,0.01,0.01,0,0,0,0,0,0.01,0.01,0.02,0.03,0.04,0.05,0.07,0.08,0.1,0.11,0.13,0.15,0.17,0.19,0.21,0.23,0.25,0.28,0.3,0.33,0.36,0.39,0.42,0.45,0.48,0.52,0.56,0.6,0.64,0.68,0.73,0.78,0.83,0.89,0.95,1.01,1.08,1.15,1.23,1.31,1.4,1.49,1.59,1.69,1.8,1.92,2.04,2.17,2.3,2.45,2.6,2.75,2.92,3.09,3.27,3.46,3.65,3.85,4.06,4.28,4.5,4.72,4.95,5.19,5.43,5.66,5.9,6.13,6.35,6.57,6.77,6.96,7.13,7.27,7.39,7.48,7.54,7.57,7.56,7.52,7.45,7.35,7.22,7.06,6.89,6.7,6.49,6.27,6.05,5.82,5.59,5.35,5.12,4.89,4.67,4.44,4.23,4.02,3.81,3.62,3.43,3.24,3.07,2.9,2.74,2.58,2.43,2.29,2.16,2.04,1.92,1.81,1.7,1.6,1.51,1.43,1.35,1.27,1.21,1.15,1.09,1.04,1,0.96,0.93,0.91,0.88,0.87,0.86,0.85,0.85,0.86,0.87,0.88,0.9,0.92,0.95,0.99,1.02,1.06,1.11,1.16,1.21,1.26,1.32,1.39,1.45,1.52,1.59,1.67,1.74,1.82,1.9
07:45:30.551,07:45:30.574,23,A,"AAAAAAAAAAAAAAAAAAAAAAAAAAAAAAAAAAAAAAAAAAAAAAAAAA{""TYPE"": ""LOG"", ""EVENT"": ""SCHEDULE_START"", ""PAYLOAD"": ""A"", ""REPEAT"": 50, ""INTERVAL"": 1.0, ""SCHEDULE"": TRUE, ""NOTE"": """"}",280,80.0,mean,1,971,971,2026-06-18T07:45:30.514,-37,1015065000,-33.7602523,150.7432492,58.89,0.04,272.6,3.34,3.39,3.43,3.46,3.48,3.5,3.51,3.51,3.51,3.5,3.48,3.46,3.42,3.39,3.35,3.31,3.26,3.21,3.16,3.1,3.05,3,2.94,2.89,2.83,2.78,2.73,2.69,2.64,2.6,2.56,2.52,2.49,2.46,2.43,2.41,2.39,2.37,2.35,2.34,2.33,2.32,2.32,2.31,2.31,2.31,2.31,2.32,2.32,2.33,2.34,2.34,2.35,2.36,2.36,2.37,2.38,2.38,2.39,2.39,2.39,2.4,2.4,2.4,2.4,2.4,2.4,2.39,2.39,2.39,2.39,2.39,2.38,2.38,2.38,2.39,2.39,2.4,2.4,2.41,2.43,2.44,2.46,2.48,2.5,2.53,2.56,2.6,2.63,2.68,2.72,2.77,2.83,2.88,2.94,3.01,3.08,3.15,3.22,3.3,3.38,3.46,3.54,3.63,3.71,3.8,3.89,3.97,4.06,4.14,4.22,4.3,4.38,4.45,4.52,4.58,4.64,4.7,4.74,4.79,4.83,4.86,4.88,4.9,4.92,4.93,4.93,4.93,4.93,4.92,4.91,4.9,4.88,4.86,4.84,4.82,4.8,4.78,4.76,4.74,4.73,4.71,4.69,4.68,4.67,4.66,4.65,4.65,4.65,4.65,4.65,4.65,4.66,4.67,4.68,4.69,4.7,4.71,4.72,4.73,4.74,4.74,4.75,4.75,4.75,4.74,4.73,4.71,4.69,4.66,4.62,4.57,4.52,4.46,4.39,4.31,4.23,4.13,4.03,3.92,3.81,3.69,3.56,3.43,3.29,3.15,3.01,2.87,2.72,2.58,2.43,2.29,2.15,2.01,1.87,1.73,1.6,1.47,1.35,1.23,1.11,1,0.9,0.8,0.7,0.61,0.53,0.45,0.38,0.32,0.26,0.2,0.16,0.12,0.08,0.05,0.03,0.01,0,0,0,0.01,0.02,0.04,0.07,0.1,0.14,0.18,0.23,0.28,0.34,0.4,0.47,0.55,0.63,0.72,0.81,0.91,1.01,1.12,1.23,1.35,1.48,1.61,1.74,1.88,2.03,2.18,2.34,2.5,2.67,2.85,3.03,3.21,3.41,3.6,3.81,4.01,4.23,4.45,4.67,4.9,5.13,5.36,5.6,5.84,6.08,6.31,6.55,6.78,7,7.22,7.42,7.61,7.79,7.94,8.07,8.18,8.26,8.31,8.33,8.32,8.28,8.22,8.12,8,7.86,7.7,7.52,7.32,7.12,6.91,6.69,6.46,6.24,6.01,5.78,5.56,5.33,5.12,4.9,4.69,4.49,4.29,4.1,3.92,3.74,3.57,3.41,3.25,3.1,2.96,2.82,2.69,2.57,2.46,2.35,2.25,2.16,2.07,2,1.92,1.86,1.8,1.76,1.71,1.68,1.65,1.63,1.61,1.61,1.61,1.61,1.62,1.64,1.67,1.7,1.74,1.78,1.83,1.88,1.94,2,2.07,2.14,2.21,2.29,2.37,2.45,2.53,2.62,2.7,2.78,2.87,2.95,3.02,3.1,3.16,3.23,3.29
07:45:32.808,07:45:32.783,-25,A,AAAAAAAAAAAAAAAAAAAAAAAAAAAAAAAAAAAAAAAAAAAAAAAAAA,117,243.0,mean,1,993,993,2026-06-18T07:45:32.819,11,1017466000,-33.7602536,150.7432516,59.13,0.23,196.14,0.56,0.54,0.53,0.51,0.5,0.48,0.46,0.44,0.42,0.4,0.38,0.36,0.33,0.31,0.29,0.27,0.24,0.22,0.2,0.18,0.16,0.14,0.13,0.11,0.09,0.08,0.07,0.06,0.04,0.03,0.03,0.02,0.01,0.01,0.01,0,0,0,0,0,0,0.01,0.01,0.01,0.02,0.02,0.03,0.04,0.04,0.05,0.06,0.07,0.08,0.1,0.11,0.12,0.14,0.15,0.17,0.19,0.21,0.24,0.26,0.29,0.32,0.35,0.39,0.43,0.47,0.51,0.56,0.62,0.67,0.73,0.79,0.86,0.93,1.01,1.09,1.18,1.27,1.36,1.46,1.56,1.67,1.78,1.9,2.02,2.14,2.27,2.4,2.54,2.67,2.81,2.95,3.09,3.23,3.37,3.51,3.65,3.79,3.92,4.05,4.17,4.29,4.4,4.5,4.6,4.69,4.76,4.83,4.89,4.94,4.98,5.01,5.04,5.05,5.06,5.06,5.05,5.04,5.02,5,4.97,4.95,4.92,4.89,4.85,4.82,4.79,4.76,4.73,4.7,4.68,4.65,4.63,4.61,4.59,4.58,4.56,4.55,4.54,4.53,4.53,4.52,4.52,4.52,4.51,4.51,4.51,4.51,4.51,4.51,4.51,4.51,4.51,4.51,4.51,4.5,4.5,4.5,4.5,4.5,4.49,4.49,4.49,4.49,4.49,4.49,4.49,4.49,4.5,4.5,4.51,4.52,4.53,4.54,4.55,4.56,4.58,4.59,4.61,4.63,4.65,4.67,4.69,4.71,4.73,4.75,4.77,4.78,4.8,4.82,4.83,4.84,4.85,4.85,4.85,4.85,4.84,4.83,4.82,4.8,4.78,4.75,4.72,4.69,4.65,4.61,4.56,4.52,4.47,4.41,4.36,4.3,4.24,4.18,4.11,4.05,3.98,3.92,3.85,3.78,3.72,3.65,3.58,3.51,3.45,3.38,3.32,3.25,3.19,3.13,3.06,3,2.94,2.88,2.82,2.77,2.71,2.65,2.6,2.55,2.5,2.44,2.39,2.35,2.3,2.25,2.21,2.17,2.12,2.08,2.05,2.01,1.97,1.94,1.91,1.88,1.85,1.83,1.8,1.78,1.76,1.75,1.73,1.72,1.71,1.7,1.69,1.69,1.69,1.69,1.69,1.69,1.7,1.7,1.71,1.71,1.72,1.73,1.74,1.75,1.76,1.77,1.78,1.79,1.8,1.8,1.81,1.81,1.81,1.81,1.81,1.8,1.79,1.78,1.77,1.76,1.74,1.72,1.69,1.67,1.64,1.61,1.57,1.54,1.5,1.46,1.42,1.38,1.34,1.3,1.26,1.21,1.17,1.13,1.09,1.05,1.01,0.97,0.93,0.89,0.86,0.83,0.8,0.77,0.74,0.72,0.7,0.68,0.66,0.65,0.63,0.62,0.61,0.61,0.6,0.6,0.59,0.59,0.59,0.59,0.59,0.6,0.6,0.6,0.6,0.6,0.61,0.61,0.61,0.61,0.6,0.6,0.6,0.59,0.59,0.58,0.57
07:45:34.806,07:45:34.786,-20,A,AAAAAAAAAAAAAAAAAAAAAAAAAAAAAAAAAAAAAAAAAAAAAAAAAA,224,134.0,mean,1,1013,1013,2026-06-18T07:45:34.815,9,1019465000,-33.7602558,150.7432507,59.19,0.07,266.77,1.35,1.31,1.27,1.23,1.18,1.14,1.09,1.05,1,0.95,0.9,0.85,0.8,0.75,0.7,0.65,0.6,0.55,0.5,0.46,0.41,0.37,0.33,0.29,0.26,0.22,0.19,0.16,0.13,0.11,0.08,0.06,0.05,0.03,0.02,0.01,0,0,0,0,0.01,0.01,0.02,0.03,0.05,0.07,0.09,0.11,0.13,0.16,0.19,0.22,0.25,0.29,0.33,0.37,0.41,0.45,0.5,0.55,0.6,0.65,0.71,0.77,0.83,0.89,0.95,1.02,1.09,1.16,1.23,1.31,1.38,1.46,1.55,1.63,1.72,1.81,1.9,2,2.1,2.2,2.3,2.4,2.51,2.61,2.72,2.83,2.94,3.05,3.17,3.28,3.39,3.5,3.61,3.72,3.82,3.93,4.03,4.13,4.22,4.31,4.39,4.47,4.55,4.62,4.68,4.74,4.79,4.84,4.88,4.91,4.94,4.96,4.97,4.98,4.99,4.99,4.99,4.99,4.98,4.97,4.95,4.94,4.92,4.9,4.88,4.86,4.84,4.82,4.8,4.78,4.76,4.74,4.71,4.7,4.68,4.66,4.64,4.62,4.6,4.58,4.57,4.55,4.53,4.52,4.5,4.49,4.47,4.46,4.44,4.43,4.42,4.4,4.39,4.38,4.37,4.36,4.36,4.35,4.35,4.34,4.34,4.34,4.35,4.35,4.36,4.37,4.39,4.4,4.42,4.44,4.47,4.5,4.52,4.56,4.59,4.63,4.66,4.7,4.74,4.78,4.83,4.87,4.91,4.96,5,5.04,5.09,5.13,5.17,5.2,5.24,5.27,5.31,5.34,5.36,5.39,5.41,5.43,5.45,5.47,5.49,5.5,5.51,5.52,5.53,5.54,5.55,5.56,5.57,5.58,5.58,5.59,5.6,5.61,5.62,5.63,5.64,5.65,5.66,5.67,5.68,5.68,5.69,5.69,5.69,5.69,5.69,5.68,5.66,5.65,5.62,5.6,5.56,5.53,5.48,5.43,5.38,5.32,5.25,5.18,5.1,5.02,4.93,4.84,4.74,4.65,4.55,4.45,4.34,4.24,4.13,4.03,3.92,3.82,3.71,3.61,3.51,3.41,3.32,3.22,3.13,3.04,2.96,2.88,2.8,2.72,2.65,2.58,2.51,2.45,2.39,2.33,2.27,2.22,2.17,2.13,2.09,2.05,2.01,1.98,1.94,1.91,1.89,1.86,1.84,1.82,1.8,1.78,1.76,1.75,1.73,1.72,1.71,1.7,1.69,1.68,1.67,1.66,1.65,1.65,1.64,1.64,1.63,1.62,1.62,1.61,1.61,1.61,1.6,1.6,1.59,1.59,1.59,1.59,1.58,1.58,1.58,1.58,1.58,1.58,1.58,1.58,1.58,1.58,1.58,1.58,1.58,1.59,1.59,1.6,1.6,1.6,1.61,1.61,1.62,1.62,1.63,1.63,1.63,1.63,1.63,1.63,1.63,1.63,1.63,1.62,1.61,1.6,1.59,1.58,1.56,1.54,1.52,1.5,1.47,1.45,1.41,1.38
07:45:36.837,07:45:36.790,-47,A,AAAAAAAAAAAAAAAAAAAAAAAAAAAAAAAAAAAAAAAAAAAAAAAAAA,221,139.0,mean,1,1033,1033,2026-06-18T07:45:36.815,-22,1021466000,-33.7602528,150.7432521,59.45,0.07,358.36,0.09,0.09,0.09,0.09,0.09,0.09,0.08,0.08,0.08,0.07,0.07,0.06,0.06,0.05,0.05,0.04,0.04,0.03,0.03,0.03,0.02,0.02,0.01,0.01,0.01,0.01,0,0,0,0,0,0,0,0,0,0.01,0.01,0.01,0.01,0.02,0.02,0.02,0.03,0.03,0.04,0.04,0.05,0.06,0.06,0.07,0.08,0.09,0.1,0.11,0.12,0.14,0.15,0.17,0.18,0.2,0.23,0.25,0.27,0.3,0.33,0.37,0.4,0.44,0.48,0.52,0.57,0.62,0.67,0.73,0.79,0.85,0.92,0.99,1.07,1.14,1.22,1.31,1.39,1.48,1.58,1.67,1.77,1.87,1.97,2.07,2.18,2.29,2.39,2.5,2.61,2.71,2.82,2.92,3.02,3.12,3.22,3.31,3.4,3.48,3.56,3.64,3.71,3.77,3.82,3.87,3.92,3.96,3.99,4.02,4.04,4.06,4.07,4.08,4.08,4.08,4.08,4.07,4.07,4.06,4.05,4.04,4.03,4.02,4.01,4,3.99,3.98,3.97,3.97,3.96,3.96,3.96,3.96,3.96,3.96,3.96,3.96,3.96,3.97,3.97,3.97,3.97,3.97,3.97,3.97,3.97,3.97,3.96,3.95,3.94,3.93,3.92,3.91,3.89,3.87,3.85,3.83,3.81,3.78,3.76,3.73,3.71,3.69,3.66,3.64,3.62,3.6,3.58,3.56,3.54,3.53,3.52,3.52,3.51,3.51,3.51,3.52,3.53,3.54,3.56,3.58,3.6,3.63,3.66,3.7,3.74,3.78,3.82,3.87,3.92,3.97,4.02,4.08,4.13,4.19,4.25,4.31,4.37,4.43,4.49,4.55,4.61,4.66,4.72,4.77,4.82,4.86,4.9,4.94,4.98,5.01,5.03,5.06,5.07,5.08,5.09,5.1,5.09,5.09,5.08,5.06,5.04,5.01,4.98,4.95,4.91,4.87,4.82,4.77,4.72,4.66,4.6,4.54,4.47,4.41,4.34,4.26,4.19,4.11,4.04,3.96,3.88,3.8,3.72,3.64,3.56,3.48,3.4,3.32,3.25,3.17,3.09,3.02,2.94,2.87,2.8,2.73,2.66,2.6,2.53,2.47,2.41,2.35,2.3,2.25,2.19,2.15,2.1,2.05,2.01,1.97,1.93,1.89,1.85,1.82,1.79,1.75,1.72,1.69,1.66,1.63,1.61,1.58,1.55,1.52,1.49,1.47,1.44,1.41,1.38,1.35,1.32,1.29,1.25,1.22,1.19,1.15,1.12,1.08,1.04,1,0.96,0.93,0.89,0.85,0.8,0.76,0.72,0.68,0.64,0.6,0.57,0.53,0.49,0.45,0.42,0.38,0.35,0.32,0.29,0.26,0.24,0.21,0.19,0.17,0.15,0.13,0.12,0.1,0.09,0.08,0.07,0.06,0.06,0.05,0.05,0.05,0.05,0.05,0.05,0.05,0.05,0.05,0.06,0.06,0.07,0.07,0.07,0.08,0.08,0.08,0.09,0.09,0.09,0.09
07:45:38.835,07:45:38.798,-37,A,AAAAAAAAAAAAAAAAAAAAAAAAAAAAAAAAAAAAAAAAAAAAAAAAAA,213,147.0,mean,1,1053,1053,2026-06-18T07:45:38.815,-20,1023465000,-33.760251,150.7432548,59.57,0.22,199.24,0.2,0.19,0.18,0.16,0.15,0.13,0.12,0.11,0.09,0.08,0.07,0.06,0.05,0.04,0.03,0.02,0.02,0.01,0.01,0,0,0,0,0,0,0.01,0.01,0.02,0.03,0.04,0.05,0.06,0.07,0.09,0.1,0.12,0.14,0.16,0.18,0.2,0.22,0.24,0.26,0.29,0.31,0.34,0.36,0.39,0.41,0.44,0.47,0.49,0.52,0.55,0.58,0.61,0.64,0.67,0.7,0.74,0.77,0.81,0.85,0.88,0.93,0.97,1.01,1.06,1.11,1.16,1.22,1.28,1.34,1.4,1.47,1.54,1.61,1.69,1.77,1.85,1.94,2.02,2.11,2.21,2.3,2.4,2.5,2.61,2.71,2.81,2.92,3.02,3.12,3.22,3.32,3.42,3.51,3.61,3.69,3.77,3.85,3.92,3.98,4.04,4.09,4.13,4.17,4.2,4.22,4.24,4.25,4.25,4.25,4.24,4.23,4.22,4.2,4.18,4.16,4.14,4.11,4.09,4.06,4.04,4.02,4,3.98,3.97,3.95,3.94,3.93,3.93,3.93,3.93,3.93,3.94,3.94,3.95,3.97,3.98,3.99,4.01,4.03,4.04,4.06,4.07,4.09,4.1,4.11,4.12,4.13,4.14,4.14,4.14,4.14,4.13,4.13,4.12,4.11,4.09,4.08,4.06,4.05,4.03,4.01,3.99,3.98,3.96,3.95,3.94,3.93,3.92,3.92,3.92,3.92,3.93,3.95,3.96,3.99,4.02,4.05,4.09,4.13,4.18,4.24,4.3,4.36,4.43,4.51,4.59,4.67,4.76,4.85,4.95,5.04,5.14,5.24,5.34,5.44,5.54,5.64,5.73,5.82,5.9,5.98,6.06,6.12,6.18,6.23,6.27,6.3,6.32,6.33,6.34,6.33,6.31,6.28,6.24,6.19,6.14,6.07,6,5.92,5.84,5.75,5.66,5.56,5.46,5.36,5.25,5.15,5.04,4.93,4.82,4.71,4.59,4.48,4.37,4.26,4.15,4.04,3.93,3.82,3.72,3.61,3.51,3.41,3.3,3.2,3.11,3.01,2.92,2.83,2.74,2.65,2.57,2.48,2.41,2.33,2.25,2.18,2.12,2.05,1.99,1.93,1.88,1.82,1.78,1.73,1.69,1.65,1.62,1.59,1.56,1.54,1.52,1.5,1.49,1.48,1.47,1.47,1.47,1.47,1.48,1.48,1.49,1.5,1.52,1.53,1.55,1.57,1.58,1.6,1.62,1.64,1.66,1.68,1.69,1.71,1.72,1.73,1.74,1.75,1.75,1.75,1.75,1.75,1.74,1.73,1.71,1.7,1.67,1.65,1.62,1.6,1.56,1.53,1.49,1.45,1.42,1.37,1.33,1.29,1.25,1.2,1.16,1.11,1.07,1.03,0.99,0.94,0.9,0.87,0.83,0.79,0.75,0.72,0.69,0.65,0.62,0.6,0.57,0.54,0.52,0.49,0.47,0.45,0.43,0.41,0.39,0.37,0.35,0.33,0.31,0.3,0.28,0.27,0.25,0.23,0.22
07:45:40.833,07:45:40.805,-28,A,AAAAAAAAAAAAAAAAAAAAAAAAAAAAAAAAAAAAAAAAAAAAAAAAAA,207,152.0,mean,1,1073,1073,2026-06-18T07:45:40.817,-16,1025465000,-33.7602512,150.7432542,59.86,0.21,228.34,0.89,0.85,0.8,0.76,0.71,0.67,0.62,0.58,0.53,0.49,0.45,0.41,0.37,0.33,0.29,0.26,0.22,0.19,0.16,0.14,0.11,0.09,0.07,0.05,0.04,0.02,0.01,0.01,0,0,0,0,0.01,0.02,0.03,0.04,0.06,0.08,0.1,0.12,0.15,0.17,0.2,0.23,0.27,0.3,0.34,0.38,0.42,0.46,0.5,0.54,0.59,0.64,0.69,0.74,0.79,0.84,0.89,0.95,1.01,1.06,1.12,1.18,1.25,1.31,1.38,1.44,1.51,1.59,1.66,1.74,1.81,1.89,1.98,2.06,2.15,2.24,2.33,2.42,2.52,2.62,2.72,2.82,2.92,3.02,3.13,3.23,3.34,3.44,3.55,3.65,3.76,3.86,3.96,4.05,4.15,4.23,4.32,4.4,4.47,4.54,4.61,4.66,4.71,4.76,4.8,4.83,4.85,4.87,4.88,4.89,4.89,4.89,4.88,4.87,4.86,4.84,4.82,4.8,4.78,4.75,4.73,4.71,4.68,4.66,4.63,4.61,4.59,4.57,4.55,4.53,4.51,4.49,4.48,4.46,4.45,4.43,4.42,4.41,4.4,4.38,4.37,4.36,4.35,4.33,4.32,4.31,4.29,4.28,4.26,4.25,4.23,4.22,4.2,4.19,4.17,4.16,4.15,4.14,4.13,4.12,4.11,4.11,4.11,4.11,4.12,4.13,4.14,4.16,4.18,4.21,4.24,4.27,4.31,4.36,4.41,4.46,4.52,4.59,4.65,4.73,4.8,4.89,4.97,5.06,5.15,5.24,5.34,5.43,5.53,5.63,5.73,5.82,5.92,6.01,6.1,6.18,6.26,6.34,6.4,6.46,6.52,6.56,6.6,6.63,6.65,6.67,6.67,6.67,6.66,6.64,6.62,6.58,6.54,6.5,6.45,6.4,6.34,6.27,6.21,6.14,6.06,5.99,5.91,5.83,5.75,5.67,5.58,5.5,5.41,5.32,5.23,5.14,5.05,4.95,4.86,4.76,4.66,4.57,4.47,4.37,4.27,4.17,4.07,3.97,3.86,3.76,3.66,3.56,3.46,3.36,3.27,3.17,3.08,2.98,2.89,2.8,2.71,2.63,2.54,2.46,2.39,2.31,2.24,2.17,2.11,2.05,1.99,1.93,1.88,1.83,1.79,1.75,1.71,1.67,1.64,1.62,1.59,1.57,1.56,1.54,1.53,1.53,1.52,1.52,1.52,1.52,1.53,1.54,1.55,1.56,1.58,1.59,1.61,1.63,1.65,1.67,1.69,1.71,1.73,1.75,1.77,1.79,1.81,1.83,1.85,1.87,1.89,1.9,1.91,1.92,1.93,1.94,1.95,1.96,1.96,1.96,1.96,1.96,1.95,1.95,1.94,1.94,1.93,1.92,1.9,1.89,1.88,1.86,1.84,1.83,1.81,1.79,1.77,1.75,1.73,1.7,1.68,1.65,1.63,1.6,1.57,1.54,1.51,1.48,1.45,1.42,1.38,1.35,1.31,1.27,1.24,1.2,1.16,1.11,1.07,1.03,0.98,0.94
07:45:42.164,07:45:42.210,46,A,"{""TYPE"": ""LOG"", ""EVENT"": ""SCHEDULE_STOP"", ""PAYLOAD"": ""A"", ""REPEAT"": 50, ""INTERVAL"": 1.0, ""SCHEDULE"": TRUE, ""NOTE"": """"}",217,142.0,mean,1,1087,1087,2026-06-18T07:45:42.114,-50,1026666000,-33.7602515,150.7432535,60.09,0.15,204.26,0.77,0.78,0.79,0.79,0.8,0.8,0.8,0.79,0.79,0.78,0.77,0.76,0.75,0.73,0.72,0.7,0.68,0.65,0.63,0.61,0.58,0.56,0.53,0.51,0.48,0.45,0.43,0.4,0.37,0.35,0.32,0.3,0.27,0.25,0.22,0.2,0.18,0.16,0.14,0.12,0.1,0.09,0.07,0.06,0.05,0.03,0.02,0.02,0.01,0,0,0,0,0,0.01,0.01,0.02,0.03,0.05,0.06,0.08,0.1,0.12,0.15,0.18,0.21,0.25,0.29,0.33,0.38,0.42,0.48,0.53,0.59,0.66,0.73,0.8,0.87,0.95,1.03,1.12,1.21,1.31,1.41,1.51,1.61,1.72,1.83,1.95,2.07,2.19,2.31,2.43,2.56,2.68,2.81,2.94,3.06,3.19,3.31,3.43,3.55,3.66,3.77,3.88,3.98,4.07,4.16,4.24,4.31,4.37,4.43,4.48,4.52,4.55,4.57,4.59,4.6,4.6,4.59,4.58,4.57,4.55,4.52,4.5,4.47,4.44,4.4,4.37,4.33,4.3,4.26,4.23,4.19,4.16,4.13,4.1,4.08,4.05,4.03,4.01,4,3.98,3.97,3.96,3.95,3.95,3.95,3.94,3.95,3.95,3.95,3.96,3.96,3.97,3.98,3.99,4,4.01,4.02,4.03,4.05,4.06,4.07,4.08,4.09,4.1,4.11,4.12,4.13,4.14,4.14,4.15,4.16,4.17,4.18,4.19,4.2,4.21,4.22,4.23,4.24,4.26,4.27,4.29,4.31,4.33,4.35,4.37,4.4,4.43,4.46,4.49,4.53,4.57,4.61,4.65,4.69,4.74,4.78,4.83,4.88,4.93,4.98,5.03,5.08,5.13,5.18,5.23,5.27,5.32,5.36,5.39,5.42,5.45,5.47,5.49,5.5,5.5,5.5,5.49,5.48,5.45,5.43,5.39,5.34,5.3,5.24,5.18,5.11,5.04,4.96,4.88,4.79,4.7,4.61,4.52,4.42,4.33,4.23,4.13,4.03,3.93,3.84,3.74,3.64,3.55,3.45,3.36,3.27,3.18,3.09,3,2.92,2.84,2.76,2.68,2.6,2.53,2.46,2.39,2.32,2.25,2.19,2.13,2.07,2.01,1.95,1.9,1.85,1.8,1.75,1.7,1.65,1.61,1.56,1.52,1.48,1.44,1.4,1.36,1.32,1.28,1.25,1.21,1.18,1.14,1.11,1.07,1.04,1.01,0.97,0.94,0.91,0.88,0.84,0.81,0.78,0.75,0.71,0.68,0.65,0.62,0.59,0.56,0.52,0.49,0.46,0.43,0.41,0.38,0.35,0.32,0.3,0.27,0.25,0.23,0.21,0.19,0.18,0.16,0.15,0.14,0.13,0.12,0.11,0.11,0.11,0.11,0.11,0.12,0.12,0.13,0.15,0.16,0.17,0.19,0.21,0.23,0.25,0.28,0.3,0.33,0.35,0.38,0.41,0.44,0.47,0.49,0.52,0.55,0.58,0.6,0.63,0.65,0.68,0.7,0.72,0.74,0.75
07:45:45.764,07:45:45.715,-49,B,BBBBBBBBBBBBBBBBBBBBBBBBBBBBBBBBBBBBBBBBBBBBBBBBBB,278,82.0,mean,1,1122,1122,2026-06-18T07:45:45.715,-49,1030265000,-33.7602533,150.7432495,59.82,0.1,178.37,2.45,2.46,2.47,2.47,2.46,2.46,2.44,2.43,2.41,2.38,2.36,2.33,2.31,2.28,2.25,2.22,2.19,2.16,2.13,2.1,2.08,2.05,2.03,2.01,1.99,1.97,1.95,1.93,1.92,1.9,1.89,1.88,1.87,1.86,1.85,1.83,1.82,1.81,1.8,1.78,1.77,1.75,1.73,1.71,1.69,1.66,1.63,1.6,1.57,1.53,1.49,1.45,1.41,1.37,1.32,1.28,1.23,1.18,1.13,1.08,1.03,0.98,0.93,0.89,0.84,0.8,0.76,0.72,0.69,0.65,0.63,0.6,0.58,0.57,0.56,0.55,0.55,0.56,0.57,0.59,0.61,0.64,0.67,0.71,0.76,0.81,0.87,0.94,1.01,1.09,1.18,1.27,1.37,1.48,1.59,1.7,1.82,1.95,2.08,2.22,2.35,2.49,2.64,2.78,2.92,3.07,3.21,3.34,3.47,3.6,3.71,3.82,3.92,4,4.07,4.12,4.16,4.19,4.19,4.18,4.16,4.12,4.06,3.99,3.91,3.82,3.71,3.6,3.49,3.36,3.23,3.1,2.97,2.84,2.71,2.58,2.45,2.33,2.2,2.09,1.97,1.87,1.76,1.66,1.57,1.48,1.4,1.33,1.26,1.19,1.14,1.08,1.04,0.99,0.96,0.93,0.9,0.88,0.86,0.85,0.84,0.83,0.83,0.83,0.84,0.85,0.86,0.87,0.88,0.9,0.91,0.93,0.94,0.96,0.98,0.99,1.01,1.02,1.03,1.05,1.05,1.06,1.06,1.06,1.06,1.06,1.05,1.04,1.03,1.01,0.99,0.97,0.95,0.92,0.89,0.86,0.83,0.79,0.76,0.72,0.68,0.64,0.6,0.56,0.52,0.48,0.44,0.4,0.36,0.33,0.29,0.25,0.22,0.19,0.16,0.13,0.11,0.08,0.06,0.04,0.03,0.02,0.01,0,0,0,0.01,0.01,0.03,0.04,0.06,0.09,0.11,0.15,0.18,0.23,0.27,0.32,0.38,0.44,0.51,0.58,0.66,0.74,0.83,0.92,1.02,1.13,1.24,1.36,1.48,1.61,1.74,1.88,2.03,2.19,2.34,2.51,2.68,2.85,3.03,3.21,3.4,3.58,3.77,3.96,4.14,4.33,4.5,4.67,4.83,4.98,5.12,5.24,5.34,5.41,5.47,5.5,5.51,5.49,5.45,5.38,5.29,5.17,5.04,4.9,4.73,4.56,4.38,4.19,3.99,3.79,3.59,3.39,3.2,3,2.81,2.63,2.45,2.27,2.1,1.94,1.79,1.64,1.5,1.37,1.25,1.14,1.03,0.93,0.84,0.76,0.68,0.62,0.56,0.5,0.46,0.42,0.39,0.37,0.36,0.35,0.35,0.35,0.36,0.38,0.41,0.44,0.47,0.51,0.56,0.61,0.67,0.73,0.79,0.86,0.93,1.01,1.08,1.16,1.24,1.32,1.41,1.49,1.57,1.65,1.73,1.81,1.89,1.96,2.03,2.1,2.16,2.21,2.26,2.31,2.35,2.38,2.41,2.43
07:45:47.763,07:45:47.726,-37,B,BBBBBBBBBBBBBBBBBBBBBBBBBBBBBBBBBBBBBBBBBBBBBBBBBB,116,244.0,mean,1,1142,1142,2026-06-18T07:45:47.715,-48,1032265000,-33.7602587,150.7432493,59.0,0.13,154.59,1.67,1.66,1.65,1.63,1.61,1.58,1.56,1.53,1.5,1.47,1.44,1.41,1.38,1.35,1.32,1.3,1.27,1.25,1.23,1.21,1.19,1.18,1.16,1.15,1.14,1.14,1.13,1.13,1.12,1.12,1.12,1.12,1.12,1.12,1.12,1.12,1.12,1.11,1.11,1.1,1.09,1.08,1.07,1.05,1.04,1.02,0.99,0.97,0.94,0.91,0.87,0.84,0.8,0.76,0.72,0.68,0.64,0.6,0.56,0.52,0.48,0.44,0.4,0.37,0.33,0.3,0.28,0.25,0.23,0.22,0.21,0.2,0.2,0.2,0.21,0.23,0.25,0.27,0.3,0.34,0.39,0.44,0.5,0.56,0.63,0.71,0.8,0.89,0.99,1.09,1.2,1.32,1.45,1.58,1.72,1.86,2.01,2.17,2.32,2.49,2.65,2.82,2.98,3.15,3.32,3.48,3.64,3.79,3.94,4.07,4.2,4.31,4.4,4.48,4.54,4.58,4.59,4.59,4.57,4.53,4.47,4.39,4.3,4.19,4.07,3.93,3.79,3.64,3.48,3.32,3.16,3,2.83,2.67,2.51,2.36,2.2,2.05,1.91,1.77,1.64,1.51,1.39,1.27,1.16,1.06,0.96,0.87,0.78,0.71,0.63,0.57,0.51,0.46,0.41,0.37,0.33,0.3,0.27,0.25,0.24,0.23,0.22,0.22,0.22,0.23,0.24,0.26,0.27,0.29,0.32,0.34,0.37,0.4,0.43,0.46,0.49,0.53,0.56,0.6,0.63,0.66,0.7,0.73,0.76,0.79,0.81,0.84,0.86,0.88,0.9,0.91,0.92,0.93,0.94,0.94,0.94,0.94,0.93,0.92,0.91,0.9,0.88,0.86,0.84,0.82,0.8,0.77,0.74,0.72,0.69,0.66,0.63,0.6,0.57,0.54,0.52,0.49,0.46,0.44,0.41,0.39,0.37,0.36,0.34,0.33,0.32,0.31,0.3,0.3,0.3,0.31,0.31,0.33,0.34,0.36,0.38,0.41,0.44,0.47,0.51,0.56,0.61,0.66,0.72,0.78,0.85,0.92,0.99,1.08,1.16,1.25,1.35,1.45,1.55,1.66,1.78,1.89,2.01,2.14,2.26,2.39,2.52,2.65,2.78,2.91,3.04,3.17,3.29,3.4,3.51,3.61,3.7,3.78,3.85,3.9,3.94,3.96,3.97,3.96,3.93,3.89,3.83,3.76,3.67,3.57,3.46,3.34,3.21,3.07,2.92,2.78,2.63,2.47,2.32,2.17,2.02,1.87,1.72,1.58,1.44,1.31,1.18,1.06,0.94,0.83,0.73,0.63,0.54,0.46,0.38,0.31,0.25,0.2,0.15,0.11,0.07,0.04,0.02,0.01,0,0,0,0.02,0.03,0.06,0.08,0.12,0.16,0.2,0.25,0.3,0.36,0.42,0.48,0.54,0.61,0.68,0.75,0.82,0.9,0.97,1.04,1.11,1.17,1.24,1.3,1.36,1.41,1.46,1.51,1.55,1.58,1.61,1.64,1.66,1.67,1.68,1.68,1.68
07:45:49.792,07:45:49.833,41,B,BBBBBBBBBBBBBBBBBBBBBBBBBBBBBBBBBBBBBBBBBBBBBBBBBB,115,245.0,mean,1,1163,1163,2026-06-18T07:45:49.815,23,1034465000,-33.7602566,150.7432487,58.42,0.24,7.86,1.92,1.9,1.87,1.84,1.8,1.76,1.72,1.69,1.65,1.61,1.57,1.53,1.5,1.46,1.43,1.41,1.38,1.36,1.34,1.33,1.32,1.31,1.31,1.31,1.31,1.31,1.32,1.34,1.35,1.37,1.39,1.41,1.43,1.45,1.47,1.5,1.52,1.54,1.56,1.58,1.6,1.61,1.62,1.63,1.63,1.63,1.62,1.62,1.6,1.59,1.57,1.54,1.51,1.48,1.45,1.41,1.38,1.33,1.29,1.25,1.21,1.17,1.12,1.08,1.05,1.01,0.97,0.94,0.92,0.89,0.87,0.86,0.85,0.84,0.84,0.85,0.86,0.88,0.9,0.93,0.97,1.01,1.06,1.12,1.18,1.26,1.34,1.42,1.51,1.61,1.72,1.84,1.96,2.08,2.22,2.36,2.5,2.65,2.8,2.96,3.12,3.28,3.44,3.6,3.75,3.9,4.05,4.19,4.32,4.43,4.54,4.62,4.69,4.75,4.78,4.79,4.78,4.75,4.7,4.63,4.54,4.43,4.31,4.18,4.04,3.89,3.73,3.56,3.4,3.23,3.06,2.89,2.72,2.55,2.39,2.24,2.08,1.94,1.8,1.66,1.53,1.41,1.29,1.18,1.08,0.99,0.9,0.82,0.74,0.67,0.61,0.56,0.51,0.47,0.43,0.4,0.38,0.36,0.35,0.34,0.34,0.35,0.35,0.37,0.39,0.41,0.44,0.47,0.5,0.54,0.58,0.62,0.66,0.71,0.76,0.81,0.86,0.91,0.96,1.02,1.07,1.12,1.16,1.21,1.25,1.3,1.33,1.37,1.4,1.42,1.44,1.46,1.47,1.48,1.48,1.47,1.46,1.45,1.43,1.4,1.37,1.33,1.29,1.25,1.2,1.15,1.1,1.04,0.98,0.92,0.86,0.8,0.74,0.68,0.62,0.56,0.5,0.45,0.39,0.34,0.29,0.25,0.2,0.16,0.13,0.1,0.07,0.05,0.03,0.01,0,0,0,0.01,0.02,0.03,0.05,0.08,0.11,0.15,0.19,0.24,0.29,0.35,0.42,0.49,0.56,0.65,0.73,0.83,0.93,1.03,1.14,1.26,1.38,1.5,1.63,1.77,1.91,2.05,2.2,2.35,2.5,2.66,2.81,2.97,3.13,3.28,3.43,3.58,3.72,3.85,3.97,4.09,4.19,4.28,4.35,4.41,4.44,4.46,4.47,4.45,4.41,4.36,4.28,4.19,4.09,3.97,3.85,3.71,3.56,3.41,3.25,3.09,2.92,2.76,2.6,2.44,2.28,2.12,1.97,1.82,1.68,1.55,1.42,1.29,1.18,1.07,0.97,0.87,0.78,0.7,0.63,0.57,0.51,0.46,0.42,0.39,0.36,0.34,0.33,0.33,0.33,0.34,0.35,0.38,0.41,0.44,0.48,0.53,0.58,0.63,0.69,0.76,0.83,0.9,0.97,1.04,1.12,1.19,1.27,1.35,1.42,1.49,1.56,1.62,1.69,1.74,1.79,1.84,1.88,1.91,1.94,1.96,1.97,1.98,1.98,1.97,1.96,1.95
07:45:51.791,07:45:51.742,-49,B,BBBBBBBBBBBBBBBBBBBBBBBBBBBBBBBBBBBBBBBBBBBBBBBBBB,279,81.0,mean,1,1182,1182,2026-06-18T07:45:51.815,24,1036465000,-33.7602534,150.7432495,58.96,0.1,273.36,2.17,2.12,2.06,2.01,1.95,1.89,1.83,1.78,1.72,1.67,1.62,1.58,1.53,1.49,1.46,1.43,1.41,1.39,1.37,1.37,1.36,1.37,1.37,1.39,1.41,1.43,1.46,1.49,1.53,1.57,1.62,1.66,1.71,1.77,1.82,1.88,1.93,1.99,2.04,2.09,2.14,2.19,2.23,2.27,2.3,2.32,2.34,2.36,2.36,2.36,2.36,2.34,2.32,2.29,2.26,2.22,2.18,2.13,2.08,2.02,1.96,1.9,1.84,1.78,1.72,1.67,1.61,1.56,1.51,1.46,1.41,1.38,1.34,1.31,1.29,1.28,1.27,1.26,1.26,1.27,1.29,1.32,1.35,1.39,1.44,1.49,1.55,1.63,1.7,1.79,1.88,1.99,2.09,2.21,2.33,2.46,2.6,2.74,2.88,3.03,3.19,3.34,3.5,3.65,3.81,3.96,4.1,4.24,4.37,4.49,4.59,4.68,4.75,4.81,4.84,4.86,4.85,4.82,4.77,4.7,4.61,4.5,4.37,4.24,4.09,3.93,3.77,3.6,3.42,3.25,3.07,2.89,2.71,2.54,2.37,2.21,2.05,1.89,1.75,1.6,1.47,1.34,1.22,1.1,1,0.9,0.8,0.72,0.64,0.57,0.5,0.45,0.4,0.35,0.32,0.29,0.26,0.25,0.24,0.23,0.24,0.25,0.26,0.28,0.31,0.34,0.37,0.41,0.46,0.51,0.57,0.62,0.69,0.75,0.82,0.89,0.97,1.04,1.12,1.19,1.27,1.35,1.42,1.5,1.57,1.63,1.7,1.76,1.81,1.86,1.9,1.94,1.97,1.99,2,2,2,1.99,1.97,1.94,1.9,1.86,1.81,1.75,1.69,1.62,1.54,1.47,1.39,1.31,1.22,1.14,1.05,0.97,0.89,0.81,0.73,0.65,0.57,0.5,0.43,0.37,0.31,0.26,0.21,0.16,0.12,0.09,0.06,0.03,0.02,0.01,0,0,0.01,0.02,0.04,0.06,0.1,0.13,0.18,0.23,0.29,0.35,0.43,0.5,0.59,0.68,0.78,0.88,0.99,1.11,1.24,1.37,1.5,1.65,1.8,1.95,2.11,2.28,2.45,2.63,2.8,2.99,3.17,3.35,3.54,3.72,3.9,4.07,4.24,4.4,4.55,4.68,4.8,4.91,4.99,5.05,5.09,5.11,5.11,5.08,5.03,4.96,4.86,4.75,4.63,4.48,4.33,4.17,4,3.82,3.64,3.46,3.27,3.09,2.91,2.74,2.57,2.4,2.24,2.09,1.94,1.8,1.67,1.54,1.42,1.32,1.21,1.12,1.04,0.96,0.9,0.84,0.79,0.75,0.71,0.69,0.67,0.66,0.66,0.66,0.68,0.7,0.73,0.76,0.8,0.85,0.91,0.96,1.03,1.1,1.17,1.25,1.32,1.41,1.49,1.57,1.66,1.74,1.82,1.9,1.97,2.04,2.11,2.17,2.23,2.27,2.31,2.34,2.37,2.38,2.39,2.38,2.37,2.35,2.33,2.3,2.26,2.22
07:45:53.805,07:45:53.853,48,B,BBBBBBBBBBBBBBBBBBBBBBBBBBBBBBBBBBBBBBBBBBBBBBBBBB,117,243.0,mean,1,1203,1203,2026-06-18T07:45:53.815,10,1038465000,-33.7602564,150.7432496,59.21,0.14,70.58,1.48,1.45,1.41,1.37,1.33,1.29,1.25,1.21,1.17,1.14,1.1,1.07,1.04,1.01,0.98,0.96,0.94,0.92,0.91,0.9,0.89,0.89,0.89,0.89,0.9,0.91,0.92,0.93,0.95,0.97,0.98,1,1.03,1.05,1.07,1.09,1.11,1.13,1.14,1.16,1.17,1.18,1.19,1.19,1.2,1.19,1.19,1.18,1.16,1.14,1.12,1.1,1.07,1.04,1.01,0.98,0.94,0.9,0.86,0.83,0.79,0.75,0.71,0.68,0.64,0.61,0.58,0.56,0.53,0.51,0.5,0.49,0.48,0.48,0.49,0.5,0.51,0.54,0.56,0.6,0.64,0.69,0.74,0.8,0.87,0.94,1.03,1.11,1.21,1.31,1.42,1.54,1.67,1.8,1.94,2.08,2.23,2.39,2.55,2.72,2.89,3.06,3.23,3.41,3.58,3.76,3.93,4.09,4.25,4.4,4.53,4.66,4.76,4.85,4.92,4.97,4.99,5,4.98,4.94,4.87,4.79,4.68,4.56,4.43,4.28,4.12,3.95,3.78,3.6,3.41,3.23,3.05,2.86,2.68,2.51,2.33,2.17,2,1.85,1.69,1.55,1.41,1.28,1.15,1.03,0.92,0.81,0.71,0.62,0.54,0.46,0.39,0.32,0.26,0.21,0.16,0.12,0.09,0.06,0.04,0.02,0.01,0,0,0,0.01,0.02,0.04,0.06,0.08,0.11,0.14,0.17,0.21,0.25,0.29,0.33,0.37,0.42,0.46,0.51,0.56,0.6,0.65,0.7,0.74,0.79,0.83,0.87,0.9,0.94,0.97,1,1.03,1.05,1.07,1.08,1.09,1.1,1.1,1.1,1.09,1.08,1.07,1.06,1.04,1.01,0.99,0.96,0.93,0.9,0.87,0.83,0.8,0.76,0.73,0.69,0.66,0.62,0.59,0.56,0.53,0.5,0.47,0.45,0.43,0.41,0.4,0.38,0.38,0.37,0.37,0.37,0.38,0.39,0.41,0.43,0.46,0.49,0.52,0.56,0.61,0.66,0.71,0.77,0.84,0.91,0.99,1.07,1.16,1.25,1.35,1.45,1.56,1.67,1.78,1.9,2.03,2.16,2.29,2.42,2.55,2.69,2.83,2.96,3.09,3.23,3.35,3.47,3.59,3.69,3.79,3.88,3.95,4.01,4.05,4.08,4.1,4.09,4.07,4.04,3.99,3.92,3.84,3.75,3.64,3.53,3.4,3.27,3.14,3,2.85,2.71,2.56,2.42,2.27,2.13,1.99,1.86,1.73,1.6,1.48,1.37,1.26,1.16,1.06,0.98,0.89,0.82,0.75,0.69,0.63,0.59,0.55,0.51,0.49,0.47,0.45,0.44,0.44,0.45,0.46,0.47,0.5,0.52,0.56,0.59,0.63,0.68,0.72,0.77,0.83,0.88,0.94,1,1.05,1.11,1.17,1.23,1.28,1.33,1.38,1.43,1.47,1.51,1.55,1.57,1.6,1.62,1.63,1.64,1.64,1.64,1.63,1.61,1.59,1.57,1.55,1.52
07:45:55.327,07:45:55.357,30,B,"{""TYPE"": ""LOG"", ""EVENT"": ""SCHEDULE_STOP"", ""PAYLOAD"": ""B"", ""REPEAT"": 50, ""INTERVAL"": 1.0, ""SCHEDULE"": FALSE, ""NOTE"": """"}",115,244.0,mean,1,1218,1218,2026-06-18T07:45:55.315,-12,1039865000,-33.7602555,150.7432496,59.41,0.17,19.67,1.39,1.34,1.29,1.24,1.2,1.15,1.1,1.06,1.02,0.98,0.94,0.91,0.88,0.86,0.84,0.82,0.82,0.81,0.81,0.82,0.83,0.85,0.87,0.89,0.93,0.96,1,1.05,1.09,1.15,1.2,1.26,1.31,1.37,1.44,1.5,1.56,1.62,1.67,1.73,1.78,1.83,1.87,1.91,1.94,1.97,1.99,2,2.01,2.01,2.01,1.99,1.97,1.95,1.92,1.88,1.84,1.8,1.75,1.7,1.65,1.6,1.54,1.49,1.44,1.39,1.35,1.3,1.26,1.22,1.19,1.17,1.14,1.13,1.12,1.11,1.11,1.12,1.14,1.16,1.19,1.23,1.27,1.32,1.38,1.45,1.53,1.61,1.7,1.8,1.91,2.03,2.15,2.28,2.41,2.56,2.71,2.86,3.02,3.19,3.36,3.53,3.7,3.88,4.05,4.22,4.38,4.54,4.69,4.83,4.95,5.06,5.15,5.22,5.26,5.29,5.29,5.27,5.22,5.15,5.06,4.95,4.82,4.68,4.52,4.35,4.18,3.99,3.8,3.61,3.42,3.23,3.03,2.85,2.66,2.48,2.3,2.13,1.96,1.8,1.65,1.5,1.36,1.23,1.1,0.98,0.87,0.77,0.67,0.58,0.49,0.41,0.34,0.28,0.22,0.17,0.13,0.09,0.06,0.04,0.02,0.01,0,0,0.01,0.02,0.03,0.05,0.08,0.11,0.15,0.19,0.23,0.28,0.34,0.4,0.46,0.52,0.59,0.66,0.73,0.8,0.87,0.95,1.02,1.1,1.17,1.24,1.31,1.37,1.43,1.49,1.54,1.59,1.63,1.67,1.7,1.72,1.73,1.73,1.73,1.72,1.7,1.68,1.65,1.61,1.56,1.51,1.46,1.4,1.33,1.27,1.2,1.13,1.05,0.98,0.91,0.84,0.77,0.7,0.63,0.57,0.51,0.45,0.4,0.35,0.3,0.26,0.22,0.19,0.16,0.14,0.13,0.12,0.11,0.11,0.12,0.13,0.15,0.17,0.2,0.24,0.28,0.32,0.38,0.43,0.5,0.57,0.64,0.72,0.81,0.9,0.99,1.09,1.2,1.31,1.42,1.54,1.66,1.79,1.91,2.04,2.17,2.3,2.43,2.56,2.69,2.81,2.93,3.05,3.16,3.26,3.36,3.44,3.51,3.58,3.63,3.66,3.69,3.69,3.69,3.67,3.63,3.58,3.52,3.45,3.37,3.27,3.17,3.06,2.94,2.82,2.69,2.57,2.44,2.31,2.18,2.05,1.92,1.8,1.68,1.56,1.45,1.34,1.24,1.14,1.05,0.97,0.89,0.82,0.75,0.69,0.64,0.59,0.56,0.52,0.5,0.48,0.47,0.47,0.47,0.47,0.49,0.51,0.53,0.56,0.6,0.64,0.69,0.73,0.79,0.84,0.9,0.96,1.02,1.08,1.15,1.21,1.27,1.33,1.38,1.43,1.48,1.53,1.57,1.6,1.63,1.65,1.66,1.67,1.67,1.67,1.66,1.64,1.62,1.59,1.56,1.52,1.48,1.44
07:46:00.510,07:46:00.464,-46,A,AAAAAAAAAAAAAAAAAAAAAAAAAAAAAAAAAAAAAAAAAAAAAAAAAA,279,81.0,mean,1,1269,1269,2026-06-18T07:46:00.515,5,1045065000,-33.760253,150.7432489,59.91,0.33,36.56,2.56,2.61,2.67,2.72,2.76,2.8,2.84,2.88,2.91,2.94,2.96,2.98,2.99,2.99,2.99,2.99,2.98,2.96,2.94,2.91,2.88,2.84,2.8,2.75,2.7,2.65,2.59,2.53,2.47,2.4,2.33,2.26,2.19,2.12,2.05,1.97,1.9,1.82,1.75,1.68,1.6,1.53,1.46,1.39,1.32,1.25,1.18,1.11,1.05,0.98,0.92,0.86,0.8,0.74,0.69,0.63,0.58,0.53,0.48,0.43,0.38,0.34,0.3,0.26,0.23,0.19,0.16,0.13,0.1,0.08,0.06,0.04,0.03,0.01,0.01,0,0,0,0.01,0.02,0.03,0.05,0.07,0.1,0.13,0.17,0.21,0.25,0.3,0.36,0.42,0.48,0.55,0.63,0.71,0.79,0.89,0.98,1.08,1.19,1.3,1.42,1.54,1.67,1.8,1.93,2.07,2.22,2.36,2.51,2.67,2.82,2.98,3.13,3.29,3.45,3.6,3.76,3.91,4.06,4.2,4.34,4.47,4.59,4.71,4.81,4.91,4.99,5.07,5.13,5.18,5.22,5.25,5.26,5.27,5.26,5.25,5.23,5.19,5.15,5.11,5.06,5,4.94,4.87,4.8,4.73,4.66,4.58,4.51,4.43,4.35,4.28,4.2,4.12,4.05,3.97,3.9,3.82,3.74,3.67,3.59,3.52,3.44,3.36,3.29,3.21,3.13,3.05,2.97,2.88,2.8,2.72,2.63,2.54,2.46,2.37,2.28,2.19,2.1,2,1.91,1.82,1.73,1.64,1.55,1.46,1.38,1.29,1.21,1.13,1.05,0.97,0.9,0.83,0.76,0.69,0.63,0.57,0.52,0.46,0.42,0.37,0.33,0.29,0.26,0.23,0.2,0.18,0.16,0.14,0.13,0.12,0.11,0.11,0.11,0.12,0.12,0.14,0.15,0.17,0.19,0.21,0.24,0.27,0.3,0.34,0.38,0.42,0.46,0.51,0.56,0.62,0.68,0.74,0.81,0.88,0.95,1.03,1.12,1.21,1.3,1.4,1.5,1.61,1.72,1.84,1.97,2.1,2.24,2.39,2.54,2.7,2.87,3.04,3.22,3.41,3.61,3.81,4.02,4.24,4.46,4.69,4.92,5.16,5.4,5.64,5.88,6.12,6.36,6.58,6.8,7.01,7.19,7.36,7.51,7.62,7.71,7.77,7.79,7.78,7.74,7.67,7.57,7.44,7.29,7.13,6.94,6.75,6.54,6.33,6.11,5.9,5.68,5.46,5.25,5.04,4.84,4.65,4.45,4.27,4.09,3.92,3.76,3.6,3.45,3.31,3.17,3.05,2.92,2.81,2.7,2.59,2.5,2.4,2.32,2.24,2.16,2.09,2.02,1.96,1.91,1.86,1.81,1.77,1.73,1.69,1.66,1.64,1.62,1.6,1.58,1.57,1.57,1.57,1.57,1.57,1.58,1.59,1.61,1.63,1.65,1.68,1.71,1.74,1.78,1.82,1.86,1.91,1.95,2,2.06,2.11,2.16,2.22,2.28,2.33,2.39,2.45,2.51
07:46:02.524,07:46:02.568,44,A,AAAAAAAAAAAAAAAAAAAAAAAAAAAAAAAAAAAAAAAAAAAAAAAAAA,221,139.0,mean,1,1290,1290,2026-06-18T07:46:02.515,-9,1047065000,-33.7602554,150.7432492,59.86,0.13,85.73,0.09,0.09,0.09,0.08,0.08,0.08,0.07,0.07,0.06,0.06,0.05,0.05,0.04,0.03,0.03,0.02,0.02,0.02,0.01,0.01,0,0,0,0,0,0,0,0,0.01,0.01,0.02,0.02,0.03,0.04,0.05,0.05,0.06,0.07,0.09,0.1,0.11,0.12,0.14,0.15,0.16,0.18,0.19,0.21,0.22,0.24,0.26,0.27,0.29,0.31,0.33,0.35,0.37,0.39,0.41,0.44,0.46,0.49,0.52,0.55,0.58,0.61,0.65,0.68,0.72,0.76,0.8,0.85,0.9,0.95,1,1.06,1.12,1.18,1.24,1.3,1.37,1.44,1.51,1.59,1.66,1.74,1.82,1.9,1.98,2.07,2.15,2.23,2.32,2.4,2.48,2.56,2.64,2.71,2.79,2.86,2.93,2.99,3.05,3.11,3.16,3.2,3.25,3.29,3.32,3.35,3.37,3.39,3.4,3.42,3.42,3.43,3.43,3.42,3.42,3.41,3.41,3.4,3.39,3.38,3.37,3.36,3.35,3.34,3.33,3.32,3.32,3.32,3.31,3.32,3.32,3.32,3.33,3.33,3.34,3.35,3.36,3.37,3.39,3.4,3.41,3.43,3.44,3.45,3.47,3.48,3.49,3.5,3.5,3.51,3.51,3.51,3.51,3.51,3.51,3.5,3.49,3.48,3.47,3.46,3.45,3.43,3.42,3.4,3.39,3.38,3.36,3.35,3.34,3.34,3.33,3.33,3.33,3.33,3.34,3.35,3.36,3.38,3.4,3.42,3.45,3.48,3.51,3.55,3.6,3.64,3.69,3.75,3.8,3.86,3.92,3.99,4.05,4.12,4.19,4.26,4.33,4.4,4.48,4.55,4.62,4.68,4.75,4.81,4.87,4.93,4.99,5.04,5.08,5.13,5.17,5.2,5.23,5.25,5.27,5.28,5.29,5.3,5.29,5.29,5.28,5.26,5.24,5.21,5.18,5.15,5.11,5.06,5.02,4.97,4.91,4.85,4.79,4.73,4.66,4.59,4.51,4.44,4.36,4.28,4.19,4.11,4.02,3.94,3.85,3.76,3.67,3.58,3.49,3.4,3.31,3.22,3.13,3.04,2.95,2.87,2.78,2.7,2.62,2.54,2.46,2.38,2.31,2.23,2.16,2.1,2.03,1.97,1.91,1.85,1.79,1.74,1.69,1.64,1.59,1.55,1.51,1.47,1.43,1.39,1.36,1.33,1.3,1.27,1.24,1.21,1.18,1.16,1.13,1.11,1.08,1.06,1.03,1.01,0.98,0.96,0.94,0.91,0.88,0.86,0.83,0.8,0.78,0.75,0.72,0.69,0.66,0.63,0.6,0.57,0.54,0.51,0.48,0.45,0.43,0.4,0.37,0.34,0.32,0.29,0.27,0.24,0.22,0.2,0.18,0.17,0.15,0.14,0.12,0.11,0.1,0.09,0.08,0.08,0.07,0.07,0.07,0.06,0.06,0.06,0.06,0.07,0.07,0.07,0.07,0.08,0.08,0.08,0.08,0.09,0.09,0.09,0.09,0.09,0.09,0.09
07:46:04.538,07:46:04.573,35,A,AAAAAAAAAAAAAAAAAAAAAAAAAAAAAAAAAAAAAAAAAAAAAAAAAA,200,156.0,mean,1,1310,1310,2026-06-18T07:46:04.515,-23,1049066000,-33.7602545,150.7432519,59.61,0.12,64.92,0.73,0.72,0.7,0.69,0.67,0.64,0.62,0.6,0.57,0.54,0.51,0.48,0.45,0.43,0.4,0.37,0.34,0.31,0.28,0.25,0.22,0.2,0.18,0.15,0.13,0.11,0.09,0.08,0.06,0.05,0.03,0.02,0.02,0.01,0,0,0,0,0,0.01,0.01,0.02,0.02,0.03,0.04,0.06,0.07,0.08,0.1,0.11,0.13,0.15,0.17,0.19,0.21,0.23,0.26,0.28,0.31,0.33,0.36,0.39,0.42,0.45,0.48,0.52,0.55,0.59,0.62,0.66,0.7,0.74,0.79,0.83,0.88,0.93,0.98,1.03,1.08,1.14,1.19,1.25,1.31,1.37,1.43,1.5,1.56,1.63,1.7,1.76,1.83,1.9,1.97,2.05,2.12,2.19,2.26,2.33,2.4,2.47,2.53,2.6,2.67,2.73,2.8,2.86,2.92,2.98,3.03,3.09,3.14,3.2,3.25,3.3,3.34,3.39,3.44,3.48,3.52,3.57,3.61,3.65,3.69,3.73,3.77,3.8,3.84,3.88,3.92,3.95,3.99,4.02,4.06,4.09,4.13,4.16,4.19,4.22,4.25,4.27,4.3,4.32,4.34,4.36,4.38,4.4,4.41,4.42,4.43,4.43,4.44,4.44,4.44,4.44,4.44,4.43,4.42,4.42,4.41,4.4,4.39,4.38,4.37,4.37,4.36,4.35,4.34,4.34,4.34,4.33,4.33,4.33,4.33,4.34,4.34,4.35,4.35,4.36,4.37,4.38,4.39,4.4,4.42,4.43,4.44,4.46,4.47,4.48,4.5,4.51,4.52,4.53,4.54,4.55,4.56,4.56,4.57,4.58,4.58,4.58,4.59,4.59,4.59,4.59,4.59,4.59,4.59,4.59,4.59,4.59,4.59,4.59,4.59,4.59,4.58,4.58,4.58,4.58,4.58,4.57,4.57,4.57,4.56,4.55,4.54,4.53,4.52,4.5,4.49,4.47,4.44,4.41,4.38,4.35,4.31,4.27,4.22,4.17,4.11,4.05,3.99,3.92,3.85,3.78,3.7,3.61,3.53,3.44,3.35,3.26,3.16,3.06,2.96,2.87,2.77,2.66,2.56,2.46,2.36,2.26,2.17,2.07,1.97,1.88,1.78,1.69,1.6,1.52,1.43,1.35,1.27,1.2,1.12,1.05,0.98,0.92,0.85,0.79,0.74,0.68,0.63,0.58,0.54,0.49,0.45,0.42,0.38,0.35,0.32,0.29,0.26,0.24,0.22,0.2,0.18,0.17,0.15,0.14,0.13,0.12,0.11,0.1,0.1,0.09,0.09,0.09,0.09,0.09,0.09,0.09,0.09,0.09,0.09,0.1,0.1,0.11,0.12,0.12,0.13,0.14,0.15,0.16,0.17,0.19,0.2,0.21,0.23,0.25,0.26,0.28,0.3,0.32,0.34,0.37,0.39,0.41,0.44,0.46,0.49,0.51,0.53,0.56,0.58,0.6,0.63,0.65,0.67,0.69,0.7,0.72,0.73,0.74,0.75,0.76,0.76,0.76,0.76,0.76,0.75,0.74
07:46:05.529,07:46:05.574,45,A,AAAAAAAAAAAAAAAAAAAAAAAAAAAAAAAAAAAAAAAAAAAAAAAAAA,192,166.0,mean,1,1320,1320,2026-06-18T07:46:05.515,-14,1050065000,-33.7602531,150.7432527,59.47,0.16,332.35,1.1,1.08,1.07,1.04,1.02,0.99,0.96,0.93,0.9,0.86,0.82,0.78,0.74,0.7,0.66,0.62,0.58,0.54,0.5,0.46,0.42,0.38,0.34,0.31,0.27,0.24,0.21,0.18,0.16,0.13,0.11,0.09,0.07,0.06,0.04,0.03,0.02,0.01,0.01,0,0,0,0,0,0.01,0.02,0.02,0.03,0.05,0.06,0.07,0.09,0.11,0.12,0.14,0.17,0.19,0.21,0.24,0.27,0.3,0.33,0.36,0.4,0.43,0.47,0.51,0.55,0.6,0.64,0.69,0.75,0.8,0.86,0.92,0.98,1.04,1.11,1.18,1.26,1.33,1.41,1.49,1.58,1.66,1.75,1.85,1.94,2.04,2.13,2.23,2.34,2.44,2.54,2.65,2.76,2.86,2.97,3.07,3.18,3.28,3.38,3.48,3.57,3.67,3.76,3.84,3.93,4,4.08,4.15,4.21,4.27,4.32,4.36,4.41,4.44,4.47,4.49,4.51,4.53,4.54,4.54,4.54,4.54,4.53,4.52,4.51,4.5,4.48,4.46,4.44,4.42,4.4,4.38,4.36,4.34,4.32,4.3,4.28,4.27,4.25,4.24,4.23,4.22,4.21,4.21,4.21,4.21,4.21,4.22,4.23,4.24,4.26,4.27,4.29,4.32,4.34,4.37,4.4,4.43,4.47,4.51,4.55,4.59,4.63,4.68,4.72,4.77,4.81,4.86,4.91,4.96,5.01,5.05,5.1,5.15,5.19,5.24,5.28,5.32,5.36,5.39,5.43,5.46,5.49,5.51,5.54,5.56,5.57,5.59,5.6,5.61,5.61,5.61,5.61,5.61,5.6,5.59,5.58,5.56,5.54,5.52,5.5,5.47,5.44,5.41,5.38,5.35,5.31,5.27,5.23,5.19,5.15,5.11,5.06,5.02,4.97,4.92,4.87,4.83,4.78,4.73,4.68,4.62,4.57,4.52,4.47,4.42,4.36,4.31,4.26,4.2,4.15,4.1,4.04,3.99,3.93,3.88,3.82,3.76,3.7,3.64,3.59,3.53,3.46,3.4,3.34,3.28,3.21,3.15,3.08,3.01,2.95,2.88,2.81,2.74,2.67,2.61,2.54,2.47,2.4,2.33,2.26,2.2,2.13,2.07,2,1.94,1.88,1.82,1.76,1.7,1.64,1.59,1.54,1.49,1.44,1.39,1.35,1.3,1.26,1.22,1.18,1.14,1.11,1.07,1.04,1.01,0.98,0.95,0.92,0.89,0.86,0.84,0.81,0.79,0.76,0.74,0.71,0.69,0.67,0.65,0.63,0.6,0.58,0.56,0.55,0.53,0.51,0.49,0.48,0.46,0.45,0.44,0.43,0.42,0.41,0.41,0.41,0.4,0.4,0.41,0.41,0.42,0.43,0.44,0.45,0.47,0.48,0.5,0.52,0.55,0.57,0.6,0.62,0.65,0.68,0.71,0.74,0.78,0.81,0.84,0.87,0.9,0.93,0.96,0.99,1.01,1.04,1.06,1.08,1.09,1.1,1.11,1.12,1.12,1.12,1.12,1.11
07:46:06.537,07:46:06.574,37,A,AAAAAAAAAAAAAAAAAAAAAAAAAAAAAAAAAAAAAAAAAAAAAAAAAA,192,166.0,mean,1,1330,1330,2026-06-18T07:46:06.515,-22,1051065000,-33.7602514,150.7432521,59.47,0.1,289.29,1.1,1.08,1.07,1.04,1.02,0.99,0.96,0.93,0.9,0.86,0.82,0.78,0.74,0.7,0.66,0.62,0.58,0.54,0.5,0.46,0.42,0.38,0.34,0.31,0.27,0.24,0.21,0.18,0.16,0.13,0.11,0.09,0.07,0.06,0.04,0.03,0.02,0.01,0.01,0,0,0,0,0,0.01,0.02,0.02,0.03,0.05,0.06,0.07,0.09,0.11,0.12,0.14,0.17,0.19,0.21,0.24,0.27,0.3,0.33,0.36,0.4,0.43,0.47,0.51,0.55,0.6,0.64,0.69,0.75,0.8,0.86,0.92,0.98,1.04,1.11,1.18,1.26,1.33,1.41,1.49,1.58,1.66,1.75,1.85,1.94,2.04,2.13,2.23,2.34,2.44,2.54,2.65,2.76,2.86,2.97,3.07,3.18,3.28,3.38,3.48,3.57,3.67,3.76,3.84,3.93,4,4.08,4.15,4.21,4.27,4.32,4.36,4.41,4.44,4.47,4.49,4.51,4.53,4.54,4.54,4.54,4.54,4.53,4.52,4.51,4.5,4.48,4.46,4.44,4.42,4.4,4.38,4.36,4.34,4.32,4.3,4.28,4.27,4.25,4.24,4.23,4.22,4.21,4.21,4.21,4.21,4.21,4.22,4.23,4.24,4.26,4.27,4.29,4.32,4.34,4.37,4.4,4.43,4.47,4.51,4.55,4.59,4.63,4.68,4.72,4.77,4.81,4.86,4.91,4.96,5.01,5.05,5.1,5.15,5.19,5.24,5.28,5.32,5.36,5.39,5.43,5.46,5.49,5.51,5.54,5.56,5.57,5.59,5.6,5.61,5.61,5.61,5.61,5.61,5.6,5.59,5.58,5.56,5.54,5.52,5.5,5.47,5.44,5.41,5.38,5.35,5.31,5.27,5.23,5.19,5.15,5.11,5.06,5.02,4.97,4.92,4.87,4.83,4.78,4.73,4.68,4.62,4.57,4.52,4.47,4.42,4.36,4.31,4.26,4.2,4.15,4.1,4.04,3.99,3.93,3.88,3.82,3.76,3.7,3.64,3.59,3.53,3.46,3.4,3.34,3.28,3.21,3.15,3.08,3.01,2.95,2.88,2.81,2.74,2.67,2.61,2.54,2.47,2.4,2.33,2.26,2.2,2.13,2.07,2,1.94,1.88,1.82,1.76,1.7,1.64,1.59,1.54,1.49,1.44,1.39,1.35,1.3,1.26,1.22,1.18,1.14,1.11,1.07,1.04,1.01,0.98,0.95,0.92,0.89,0.86,0.84,0.81,0.79,0.76,0.74,0.71,0.69,0.67,0.65,0.63,0.6,0.58,0.56,0.55,0.53,0.51,0.49,0.48,0.46,0.45,0.44,0.43,0.42,0.41,0.41,0.41,0.4,0.4,0.41,0.41,0.42,0.43,0.44,0.45,0.47,0.48,0.5,0.52,0.55,0.57,0.6,0.62,0.65,0.68,0.71,0.74,0.78,0.81,0.84,0.87,0.9,0.93,0.96,0.99,1.01,1.04,1.06,1.08,1.09,1.1,1.11,1.12,1.12,1.12,1.12,1.11
07:46:08.535,07:46:08.580,45,A,AAAAAAAAAAAAAAAAAAAAAAAAAAAAAAAAAAAAAAAAAAAAAAAAAA,208,151.0,mean,1,1350,1350,2026-06-18T07:46:08.515,-20,1053065000,-33.7602517,150.7432516,59.53,0.16,188.82,0.76,0.73,0.69,0.65,0.62,0.58,0.54,0.5,0.46,0.42,0.39,0.35,0.32,0.28,0.25,0.22,0.19,0.16,0.13,0.11,0.09,0.07,0.05,0.03,0.02,0.01,0.01,0,0,0,0,0.01,0.02,0.03,0.05,0.06,0.08,0.1,0.13,0.15,0.18,0.21,0.24,0.28,0.31,0.35,0.39,0.43,0.47,0.52,0.56,0.61,0.65,0.7,0.75,0.8,0.86,0.91,0.96,1.02,1.08,1.14,1.2,1.26,1.32,1.39,1.46,1.53,1.6,1.67,1.74,1.82,1.9,1.98,2.07,2.15,2.24,2.33,2.42,2.52,2.62,2.71,2.82,2.92,3.02,3.13,3.23,3.34,3.44,3.55,3.66,3.76,3.86,3.96,4.06,4.15,4.24,4.32,4.4,4.47,4.54,4.6,4.65,4.69,4.73,4.76,4.78,4.79,4.8,4.79,4.78,4.77,4.74,4.71,4.68,4.64,4.6,4.55,4.5,4.45,4.4,4.35,4.29,4.24,4.18,4.13,4.08,4.03,3.98,3.93,3.88,3.84,3.8,3.76,3.72,3.69,3.66,3.63,3.61,3.58,3.56,3.54,3.53,3.51,3.5,3.49,3.48,3.47,3.47,3.47,3.47,3.47,3.47,3.47,3.48,3.48,3.49,3.5,3.51,3.52,3.54,3.56,3.58,3.6,3.62,3.65,3.67,3.7,3.74,3.77,3.81,3.85,3.9,3.94,3.99,4.05,4.1,4.16,4.22,4.29,4.36,4.43,4.5,4.57,4.65,4.73,4.81,4.89,4.97,5.05,5.13,5.21,5.29,5.37,5.45,5.52,5.59,5.66,5.72,5.78,5.84,5.89,5.93,5.97,6.01,6.03,6.05,6.07,6.08,6.08,6.08,6.08,6.07,6.05,6.03,6.01,5.98,5.95,5.92,5.88,5.84,5.8,5.76,5.72,5.67,5.62,5.57,5.52,5.47,5.42,5.36,5.31,5.25,5.19,5.13,5.07,5.01,4.94,4.88,4.81,4.74,4.67,4.59,4.52,4.44,4.36,4.28,4.2,4.12,4.03,3.95,3.86,3.78,3.7,3.61,3.53,3.45,3.36,3.28,3.2,3.13,3.05,2.98,2.91,2.84,2.77,2.71,2.65,2.59,2.54,2.48,2.44,2.39,2.35,2.31,2.27,2.24,2.21,2.18,2.15,2.13,2.11,2.09,2.07,2.06,2.04,2.03,2.02,2.01,2,2,1.99,1.98,1.98,1.97,1.96,1.96,1.95,1.94,1.93,1.92,1.91,1.9,1.89,1.87,1.86,1.84,1.82,1.81,1.79,1.77,1.75,1.73,1.7,1.68,1.66,1.64,1.61,1.59,1.57,1.55,1.53,1.5,1.48,1.46,1.44,1.42,1.41,1.39,1.37,1.35,1.34,1.32,1.31,1.3,1.28,1.27,1.26,1.24,1.23,1.22,1.21,1.19,1.18,1.16,1.15,1.13,1.11,1.09,1.07,1.05,1.03,1.01,0.98,0.95,0.93,0.9,0.86,0.83,0.8
07:46:10.533,07:46:10.486,-47,A,AAAAAAAAAAAAAAAAAAAAAAAAAAAAAAAAAAAAAAAAAAAAAAAAAA,211,148.0,mean,1,1369,1369,2026-06-18T07:46:10.515,-18,1055065000,-33.7602539,150.7432482,59.49,0.09,42.35,0.37,0.36,0.36,0.35,0.34,0.34,0.32,0.31,0.3,0.28,0.27,0.25,0.24,0.22,0.2,0.19,0.17,0.15,0.14,0.12,0.1,0.09,0.08,0.06,0.05,0.04,0.03,0.02,0.02,0.01,0.01,0,0,0,0,0,0,0.01,0.01,0.02,0.03,0.03,0.04,0.05,0.06,0.08,0.09,0.1,0.12,0.13,0.15,0.16,0.18,0.2,0.22,0.24,0.26,0.28,0.31,0.33,0.36,0.39,0.42,0.45,0.48,0.52,0.56,0.6,0.64,0.69,0.74,0.79,0.84,0.9,0.96,1.02,1.08,1.15,1.22,1.3,1.37,1.45,1.53,1.62,1.71,1.8,1.89,1.98,2.08,2.18,2.28,2.38,2.48,2.58,2.68,2.78,2.88,2.98,3.07,3.16,3.25,3.34,3.42,3.5,3.57,3.64,3.7,3.76,3.81,3.86,3.89,3.93,3.95,3.97,3.99,4,4,4.01,4,3.99,3.98,3.97,3.95,3.93,3.91,3.89,3.87,3.85,3.82,3.8,3.78,3.76,3.74,3.72,3.71,3.69,3.68,3.67,3.66,3.65,3.64,3.64,3.64,3.64,3.64,3.64,3.65,3.66,3.66,3.67,3.68,3.69,3.71,3.72,3.73,3.74,3.76,3.77,3.78,3.8,3.81,3.82,3.84,3.85,3.86,3.88,3.89,3.9,3.91,3.92,3.93,3.94,3.95,3.96,3.97,3.99,4,4.01,4.02,4.03,4.04,4.06,4.07,4.08,4.1,4.11,4.13,4.14,4.16,4.17,4.19,4.21,4.23,4.24,4.26,4.28,4.29,4.31,4.33,4.34,4.36,4.37,4.39,4.4,4.41,4.42,4.43,4.44,4.45,4.45,4.45,4.46,4.46,4.46,4.45,4.45,4.44,4.43,4.43,4.41,4.4,4.39,4.37,4.36,4.34,4.32,4.3,4.27,4.25,4.22,4.2,4.17,4.14,4.11,4.08,4.04,4.01,3.97,3.93,3.89,3.85,3.81,3.77,3.72,3.68,3.63,3.58,3.53,3.48,3.43,3.37,3.32,3.26,3.21,3.15,3.09,3.04,2.98,2.92,2.86,2.81,2.75,2.69,2.64,2.58,2.53,2.47,2.42,2.37,2.32,2.27,2.22,2.17,2.13,2.08,2.04,1.99,1.95,1.91,1.87,1.83,1.79,1.76,1.72,1.68,1.65,1.61,1.58,1.54,1.5,1.47,1.43,1.4,1.36,1.32,1.28,1.24,1.2,1.16,1.12,1.08,1.04,1,0.96,0.91,0.87,0.83,0.78,0.74,0.7,0.65,0.61,0.57,0.53,0.49,0.46,0.42,0.39,0.35,0.32,0.29,0.26,0.24,0.22,0.19,0.18,0.16,0.15,0.13,0.12,0.12,0.11,0.11,0.11,0.11,0.12,0.12,0.13,0.14,0.15,0.16,0.17,0.19,0.2,0.21,0.23,0.24,0.26,0.27,0.29,0.3,0.31,0.33,0.34,0.35,0.35,0.36,0.36,0.37,0.37
07:46:12.244,07:46:12.194,-50,A,"{""TYPE"": ""LOG"", ""EVENT"": ""SCHEDULE_STOP"", ""PAYLOAD"": ""A"", ""REPEAT"": 50, ""INTERVAL"": 1.0, ""SCHEDULE"": FALSE, ""NOTE"": """"}",219,140.0,mean,1,1386,1386,2026-06-18T07:46:12.220,-24,1056866000,-33.7602539,150.7432505,59.61,0.1,95.98,0.56,0.55,0.53,0.51,0.49,0.47,0.45,0.43,0.41,0.39,0.36,0.34,0.32,0.29,0.27,0.25,0.22,0.2,0.18,0.16,0.14,0.12,0.1,0.08,0.07,0.06,0.04,0.03,0.02,0.02,0.01,0,0,0,0,0,0,0.01,0.02,0.02,0.03,0.04,0.05,0.07,0.08,0.1,0.11,0.13,0.15,0.17,0.19,0.21,0.23,0.26,0.28,0.31,0.33,0.36,0.39,0.42,0.45,0.49,0.52,0.56,0.6,0.64,0.68,0.72,0.77,0.81,0.86,0.91,0.97,1.02,1.08,1.14,1.2,1.27,1.34,1.4,1.48,1.55,1.63,1.7,1.78,1.87,1.95,2.03,2.12,2.21,2.29,2.38,2.47,2.55,2.64,2.73,2.81,2.89,2.98,3.05,3.13,3.2,3.27,3.34,3.4,3.46,3.51,3.56,3.61,3.65,3.68,3.72,3.74,3.77,3.79,3.81,3.82,3.83,3.84,3.84,3.85,3.85,3.85,3.85,3.85,3.85,3.85,3.84,3.84,3.84,3.84,3.84,3.85,3.85,3.85,3.86,3.87,3.87,3.88,3.89,3.9,3.91,3.92,3.93,3.94,3.95,3.96,3.97,3.98,3.99,4,4,4.01,4.02,4.02,4.02,4.03,4.03,4.03,4.03,4.03,4.02,4.02,4.02,4.02,4.02,4.01,4.01,4.01,4.01,4.02,4.02,4.02,4.03,4.04,4.05,4.06,4.08,4.09,4.11,4.13,4.15,4.18,4.21,4.23,4.26,4.3,4.33,4.37,4.4,4.44,4.48,4.52,4.56,4.6,4.64,4.68,4.72,4.76,4.8,4.84,4.88,4.91,4.95,4.98,5.01,5.04,5.07,5.1,5.12,5.15,5.17,5.19,5.2,5.22,5.23,5.24,5.25,5.25,5.26,5.26,5.26,5.25,5.24,5.23,5.22,5.21,5.19,5.17,5.14,5.11,5.08,5.05,5.01,4.97,4.92,4.87,4.82,4.76,4.7,4.64,4.57,4.5,4.43,4.35,4.28,4.19,4.11,4.03,3.94,3.85,3.76,3.67,3.58,3.49,3.4,3.31,3.22,3.13,3.05,2.96,2.87,2.79,2.71,2.63,2.55,2.48,2.4,2.33,2.26,2.2,2.13,2.07,2.01,1.96,1.91,1.85,1.81,1.76,1.72,1.68,1.64,1.6,1.57,1.53,1.5,1.47,1.45,1.42,1.4,1.37,1.35,1.33,1.31,1.29,1.27,1.25,1.23,1.21,1.19,1.17,1.15,1.13,1.11,1.09,1.07,1.05,1.03,1.01,0.99,0.96,0.94,0.92,0.9,0.88,0.86,0.84,0.82,0.8,0.78,0.76,0.74,0.72,0.71,0.69,0.68,0.67,0.65,0.64,0.63,0.63,0.62,0.61,0.61,0.61,0.61,0.6,0.6,0.61,0.61,0.61,0.61,0.61,0.62,0.62,0.62,0.63,0.63,0.63,0.63,0.63,0.63,0.63,0.62,0.62,0.61,0.61,0.6,0.59,0.57
07:46:16.356,07:46:16.310,-46,B,BBBBBBBBBBBBBBBBBBBBBBBBBBBBBBBBBBBBBBBBBBBBBBBBBB,279,81.0,mean,1,1427,1427,2026-06-18T07:46:16.315,-41,1060865000,-33.7602557,150.7432494,59.45,0.11,16.3,1.12,1.12,1.11,1.09,1.08,1.06,1.04,1.01,0.99,0.96,0.94,0.91,0.88,0.85,0.82,0.8,0.77,0.74,0.72,0.7,0.67,0.65,0.63,0.62,0.6,0.59,0.58,0.57,0.56,0.55,0.54,0.54,0.53,0.53,0.52,0.52,0.51,0.51,0.51,0.5,0.49,0.49,0.48,0.47,0.46,0.45,0.43,0.42,0.4,0.39,0.37,0.35,0.33,0.3,0.28,0.26,0.24,0.21,0.19,0.17,0.15,0.13,0.11,0.09,0.08,0.06,0.06,0.05,0.04,0.04,0.05,0.06,0.07,0.08,0.1,0.13,0.16,0.19,0.23,0.28,0.33,0.38,0.44,0.51,0.58,0.66,0.74,0.83,0.92,1.02,1.12,1.22,1.33,1.45,1.56,1.68,1.81,1.93,2.06,2.19,2.31,2.44,2.56,2.68,2.8,2.91,3.01,3.11,3.2,3.28,3.34,3.4,3.45,3.48,3.5,3.5,3.49,3.47,3.43,3.39,3.33,3.26,3.18,3.09,2.99,2.89,2.78,2.67,2.55,2.43,2.31,2.19,2.07,1.95,1.83,1.72,1.61,1.5,1.39,1.29,1.19,1.09,1,0.92,0.84,0.76,0.69,0.63,0.57,0.51,0.46,0.42,0.38,0.34,0.31,0.28,0.26,0.24,0.22,0.21,0.21,0.2,0.2,0.2,0.21,0.22,0.22,0.24,0.25,0.27,0.28,0.3,0.32,0.34,0.36,0.37,0.39,0.41,0.43,0.45,0.46,0.48,0.49,0.51,0.52,0.53,0.54,0.54,0.55,0.55,0.55,0.55,0.55,0.55,0.54,0.53,0.53,0.52,0.5,0.49,0.48,0.47,0.45,0.44,0.42,0.4,0.39,0.37,0.35,0.34,0.32,0.3,0.29,0.27,0.26,0.24,0.23,0.22,0.21,0.2,0.19,0.19,0.18,0.18,0.18,0.18,0.18,0.18,0.19,0.2,0.21,0.22,0.24,0.26,0.28,0.31,0.34,0.37,0.41,0.44,0.49,0.53,0.58,0.63,0.69,0.75,0.82,0.88,0.96,1.03,1.11,1.2,1.28,1.38,1.47,1.57,1.67,1.78,1.89,2,2.11,2.23,2.34,2.46,2.58,2.7,2.81,2.92,3.03,3.14,3.24,3.33,3.42,3.49,3.56,3.62,3.66,3.69,3.71,3.72,3.71,3.69,3.65,3.6,3.54,3.47,3.38,3.29,3.18,3.07,2.95,2.83,2.7,2.56,2.43,2.29,2.16,2.02,1.89,1.75,1.62,1.5,1.37,1.25,1.14,1.03,0.92,0.82,0.73,0.64,0.55,0.48,0.41,0.34,0.28,0.23,0.18,0.14,0.1,0.07,0.04,0.02,0.01,0,0,0,0.01,0.02,0.04,0.06,0.08,0.11,0.14,0.18,0.22,0.26,0.3,0.35,0.4,0.45,0.5,0.55,0.6,0.65,0.7,0.75,0.79,0.84,0.88,0.92,0.96,0.99,1.02,1.05,1.07,1.09,1.11,1.12,1.12,1.12
07:46:18.371,07:46:18.320,-51,B,BBBBBBBBBBBBBBBBBBBBBBBBBBBBBBBBBBBBBBBBBBBBBBBBBB,116,244.0,mean,1,1447,1447,2026-06-18T07:46:18.419,48,1063065000,-33.7602553,150.7432506,59.17,0.13,33.8,1.39,1.33,1.27,1.2,1.14,1.08,1.02,0.96,0.91,0.86,0.81,0.77,0.73,0.7,0.67,0.65,0.63,0.62,0.61,0.61,0.62,0.63,0.65,0.67,0.7,0.73,0.77,0.81,0.86,0.92,0.97,1.04,1.1,1.17,1.24,1.31,1.38,1.46,1.53,1.61,1.68,1.75,1.82,1.88,1.94,2,2.05,2.09,2.13,2.16,2.19,2.2,2.22,2.22,2.22,2.21,2.2,2.18,2.15,2.12,2.09,2.05,2.02,1.98,1.94,1.9,1.85,1.82,1.78,1.74,1.71,1.68,1.65,1.63,1.61,1.6,1.59,1.59,1.6,1.61,1.62,1.65,1.68,1.71,1.75,1.8,1.86,1.92,1.99,2.07,2.16,2.25,2.34,2.45,2.56,2.67,2.8,2.92,3.05,3.19,3.33,3.47,3.61,3.76,3.9,4.04,4.18,4.31,4.44,4.55,4.66,4.75,4.84,4.9,4.95,4.98,4.99,4.98,4.95,4.91,4.84,4.75,4.65,4.53,4.4,4.25,4.1,3.94,3.77,3.59,3.41,3.23,3.05,2.87,2.69,2.52,2.34,2.17,2.01,1.85,1.7,1.55,1.41,1.27,1.14,1.02,0.91,0.8,0.7,0.6,0.52,0.43,0.36,0.3,0.24,0.18,0.14,0.1,0.07,0.04,0.02,0.01,0,0,0.01,0.02,0.03,0.06,0.09,0.12,0.16,0.2,0.25,0.3,0.36,0.42,0.49,0.55,0.62,0.7,0.77,0.85,0.93,1,1.08,1.16,1.23,1.31,1.38,1.45,1.51,1.57,1.63,1.67,1.72,1.75,1.78,1.8,1.82,1.82,1.82,1.82,1.8,1.78,1.75,1.71,1.67,1.62,1.57,1.52,1.46,1.4,1.33,1.27,1.2,1.14,1.07,1.01,0.95,0.89,0.83,0.77,0.72,0.67,0.63,0.59,0.55,0.52,0.5,0.47,0.46,0.45,0.44,0.44,0.45,0.46,0.47,0.5,0.52,0.56,0.6,0.64,0.69,0.75,0.81,0.88,0.95,1.03,1.11,1.2,1.29,1.39,1.49,1.59,1.7,1.81,1.93,2.04,2.16,2.28,2.39,2.51,2.63,2.74,2.85,2.96,3.06,3.16,3.25,3.32,3.4,3.46,3.5,3.54,3.57,3.58,3.58,3.57,3.54,3.5,3.45,3.39,3.31,3.23,3.14,3.04,2.94,2.83,2.71,2.59,2.47,2.35,2.23,2.11,1.99,1.87,1.75,1.64,1.53,1.42,1.32,1.23,1.13,1.05,0.97,0.89,0.82,0.76,0.71,0.66,0.61,0.57,0.54,0.52,0.5,0.49,0.48,0.49,0.49,0.51,0.52,0.55,0.58,0.62,0.66,0.7,0.75,0.8,0.86,0.92,0.98,1.05,1.12,1.18,1.25,1.32,1.38,1.45,1.51,1.57,1.62,1.67,1.72,1.76,1.79,1.82,1.83,1.85,1.85,1.84,1.83,1.81,1.79,1.76,1.72,1.67,1.62,1.57,1.51,1.45
07:46:20.369,07:46:20.325,-44,B,BBBBBBBBBBBBBBBBBBBBBBBBBBBBBBBBBBBBBBBBBBBBBBBBBB,117,243.0,mean,1,1467,1467,2026-06-18T07:46:20.416,47,1065065000,-33.7602541,150.7432503,58.94,0.13,291.87,1.27,1.24,1.2,1.16,1.12,1.08,1.04,1,0.96,0.93,0.89,0.86,0.82,0.79,0.76,0.74,0.72,0.7,0.69,0.67,0.67,0.66,0.66,0.66,0.67,0.67,0.68,0.7,0.71,0.73,0.75,0.77,0.8,0.82,0.84,0.87,0.89,0.92,0.94,0.96,0.98,1,1.01,1.02,1.03,1.04,1.04,1.04,1.03,1.02,1.01,1,0.98,0.95,0.93,0.9,0.87,0.84,0.81,0.78,0.75,0.71,0.68,0.65,0.62,0.59,0.56,0.54,0.51,0.5,0.48,0.47,0.46,0.46,0.46,0.47,0.48,0.5,0.53,0.56,0.59,0.64,0.69,0.74,0.8,0.87,0.95,1.03,1.12,1.21,1.31,1.42,1.54,1.66,1.78,1.92,2.05,2.2,2.35,2.5,2.65,2.81,2.97,3.13,3.29,3.45,3.6,3.75,3.9,4.03,4.16,4.27,4.37,4.46,4.53,4.58,4.61,4.62,4.61,4.58,4.53,4.47,4.38,4.28,4.17,4.04,3.9,3.75,3.6,3.44,3.27,3.11,2.94,2.77,2.6,2.44,2.27,2.11,1.96,1.81,1.66,1.52,1.39,1.26,1.14,1.02,0.91,0.81,0.71,0.62,0.54,0.46,0.39,0.32,0.26,0.21,0.16,0.12,0.09,0.06,0.04,0.02,0.01,0,0,0,0.01,0.02,0.04,0.06,0.09,0.11,0.15,0.18,0.22,0.26,0.3,0.35,0.39,0.44,0.49,0.54,0.58,0.63,0.68,0.73,0.77,0.82,0.86,0.9,0.94,0.97,1,1.03,1.05,1.07,1.09,1.1,1.11,1.11,1.11,1.11,1.1,1.09,1.08,1.06,1.04,1.01,0.99,0.96,0.93,0.9,0.86,0.83,0.8,0.76,0.73,0.69,0.66,0.63,0.6,0.57,0.54,0.51,0.49,0.47,0.45,0.44,0.42,0.42,0.41,0.41,0.41,0.42,0.43,0.44,0.46,0.48,0.51,0.54,0.57,0.61,0.66,0.7,0.76,0.81,0.88,0.94,1.01,1.09,1.17,1.25,1.34,1.43,1.52,1.62,1.72,1.82,1.93,2.03,2.14,2.25,2.36,2.46,2.57,2.67,2.77,2.86,2.95,3.03,3.1,3.17,3.22,3.26,3.3,3.32,3.33,3.33,3.31,3.28,3.24,3.19,3.13,3.05,2.97,2.87,2.77,2.67,2.55,2.44,2.31,2.19,2.07,1.94,1.81,1.69,1.57,1.45,1.33,1.21,1.1,1,0.9,0.8,0.71,0.62,0.54,0.47,0.4,0.34,0.29,0.24,0.19,0.16,0.13,0.1,0.09,0.07,0.07,0.07,0.07,0.09,0.1,0.12,0.15,0.18,0.22,0.26,0.31,0.35,0.41,0.46,0.52,0.58,0.64,0.7,0.76,0.82,0.88,0.94,1,1.06,1.11,1.16,1.21,1.25,1.29,1.32,1.35,1.38,1.39,1.4,1.41,1.41,1.4,1.39,1.38,1.36,1.33,1.3
07:46:22.399,07:46:22.433,34,B,BBBBBBBBBBBBBBBBBBBBBBBBBBBBBBBBBBBBBBBBBBBBBBBBBB,278,82.0,mean,1,1488,1488,2026-06-18T07:46:22.416,17,1067065000,-33.760254,150.7432489,59.01,0.13,127.28,2.47,2.51,2.54,2.57,2.59,2.61,2.63,2.63,2.64,2.63,2.62,2.61,2.59,2.56,2.53,2.5,2.46,2.41,2.37,2.32,2.27,2.21,2.16,2.1,2.05,1.99,1.93,1.88,1.82,1.77,1.71,1.66,1.61,1.56,1.52,1.47,1.43,1.39,1.36,1.32,1.29,1.26,1.24,1.22,1.2,1.18,1.17,1.15,1.15,1.14,1.14,1.13,1.14,1.14,1.14,1.15,1.16,1.17,1.18,1.2,1.21,1.23,1.25,1.27,1.29,1.32,1.34,1.36,1.39,1.42,1.45,1.48,1.51,1.54,1.57,1.61,1.64,1.68,1.72,1.76,1.8,1.84,1.89,1.94,1.99,2.04,2.09,2.15,2.21,2.28,2.34,2.41,2.48,2.56,2.63,2.71,2.8,2.88,2.97,3.07,3.16,3.26,3.36,3.46,3.57,3.67,3.78,3.89,4,4.12,4.23,4.34,4.45,4.56,4.67,4.77,4.88,4.98,5.07,5.16,5.25,5.33,5.41,5.48,5.54,5.59,5.64,5.69,5.72,5.75,5.77,5.79,5.8,5.8,5.79,5.79,5.77,5.75,5.73,5.7,5.67,5.64,5.6,5.57,5.53,5.49,5.44,5.4,5.35,5.3,5.26,5.21,5.16,5.11,5.06,5,4.95,4.89,4.84,4.78,4.72,4.65,4.59,4.52,4.45,4.37,4.29,4.21,4.12,4.04,3.94,3.85,3.74,3.64,3.53,3.42,3.31,3.19,3.07,2.95,2.83,2.7,2.58,2.45,2.32,2.2,2.07,1.95,1.82,1.7,1.58,1.47,1.35,1.24,1.13,1.03,0.93,0.84,0.75,0.66,0.58,0.5,0.43,0.36,0.3,0.25,0.2,0.15,0.11,0.08,0.05,0.03,0.02,0,0,0,0.01,0.02,0.04,0.06,0.09,0.12,0.16,0.21,0.26,0.31,0.37,0.44,0.51,0.58,0.66,0.75,0.84,0.93,1.03,1.14,1.24,1.36,1.48,1.6,1.73,1.86,2,2.14,2.29,2.44,2.59,2.75,2.92,3.09,3.27,3.45,3.63,3.82,4.01,4.21,4.41,4.62,4.83,5.04,5.26,5.48,5.69,5.91,6.13,6.35,6.56,6.77,6.97,7.16,7.34,7.51,7.66,7.8,7.91,8,8.07,8.12,8.14,8.13,8.1,8.04,7.96,7.86,7.74,7.6,7.44,7.27,7.1,6.91,6.71,6.51,6.31,6.11,5.9,5.7,5.49,5.29,5.09,4.9,4.71,4.52,4.34,4.16,3.99,3.82,3.66,3.5,3.35,3.21,3.07,2.93,2.81,2.68,2.57,2.45,2.35,2.25,2.15,2.06,1.98,1.9,1.83,1.77,1.71,1.65,1.6,1.56,1.52,1.49,1.47,1.45,1.43,1.42,1.42,1.42,1.43,1.44,1.45,1.47,1.5,1.53,1.56,1.6,1.64,1.69,1.73,1.78,1.84,1.89,1.95,2,2.06,2.12,2.17,2.23,2.28,2.33,2.38,2.43
07:46:24.413,07:46:24.440,27,B,BBBBBBBBBBBBBBBBBBBBBBBBBBBBBBBBBBBBBBBBBBBBBBBBBB,278,82.0,mean,1,1508,1508,2026-06-18T07:46:24.416,3,1069065000,-33.7602544,150.7432486,59.04,0.07,261.14,2.47,2.51,2.54,2.57,2.59,2.61,2.63,2.63,2.64,2.63,2.62,2.61,2.59,2.56,2.53,2.5,2.46,2.41,2.37,2.32,2.27,2.21,2.16,2.1,2.05,1.99,1.93,1.88,1.82,1.77,1.71,1.66,1.61,1.56,1.52,1.47,1.43,1.39,1.36,1.32,1.29,1.26,1.24,1.22,1.2,1.18,1.17,1.15,1.15,1.14,1.14,1.13,1.14,1.14,1.14,1.15,1.16,1.17,1.18,1.2,1.21,1.23,1.25,1.27,1.29,1.32,1.34,1.36,1.39,1.42,1.45,1.48,1.51,1.54,1.57,1.61,1.64,1.68,1.72,1.76,1.8,1.84,1.89,1.94,1.99,2.04,2.09,2.15,2.21,2.28,2.34,2.41,2.48,2.56,2.63,2.71,2.8,2.88,2.97,3.07,3.16,3.26,3.36,3.46,3.57,3.67,3.78,3.89,4,4.12,4.23,4.34,4.45,4.56,4.67,4.77,4.88,4.98,5.07,5.16,5.25,5.33,5.41,5.48,5.54,5.59,5.64,5.69,5.72,5.75,5.77,5.79,5.8,5.8,5.79,5.79,5.77,5.75,5.73,5.7,5.67,5.64,5.6,5.57,5.53,5.49,5.44,5.4,5.35,5.3,5.26,5.21,5.16,5.11,5.06,5,4.95,4.89,4.84,4.78,4.72,4.65,4.59,4.52,4.45,4.37,4.29,4.21,4.12,4.04,3.94,3.85,3.74,3.64,3.53,3.42,3.31,3.19,3.07,2.95,2.83,2.7,2.58,2.45,2.32,2.2,2.07,1.95,1.82,1.7,1.58,1.47,1.35,1.24,1.13,1.03,0.93,0.84,0.75,0.66,0.58,0.5,0.43,0.36,0.3,0.25,0.2,0.15,0.11,0.08,0.05,0.03,0.02,0,0,0,0.01,0.02,0.04,0.06,0.09,0.12,0.16,0.21,0.26,0.31,0.37,0.44,0.51,0.58,0.66,0.75,0.84,0.93,1.03,1.14,1.24,1.36,1.48,1.6,1.73,1.86,2,2.14,2.29,2.44,2.59,2.75,2.92,3.09,3.27,3.45,3.63,3.82,4.01,4.21,4.41,4.62,4.83,5.04,5.26,5.48,5.69,5.91,6.13,6.35,6.56,6.77,6.97,7.16,7.34,7.51,7.66,7.8,7.91,8,8.07,8.12,8.14,8.13,8.1,8.04,7.96,7.86,7.74,7.6,7.44,7.27,7.1,6.91,6.71,6.51,6.31,6.11,5.9,5.7,5.49,5.29,5.09,4.9,4.71,4.52,4.34,4.16,3.99,3.82,3.66,3.5,3.35,3.21,3.07,2.93,2.81,2.68,2.57,2.45,2.35,2.25,2.15,2.06,1.98,1.9,1.83,1.77,1.71,1.65,1.6,1.56,1.52,1.49,1.47,1.45,1.43,1.42,1.42,1.42,1.43,1.44,1.45,1.47,1.5,1.53,1.56,1.6,1.64,1.69,1.73,1.78,1.84,1.89,1.95,2,2.06,2.12,2.17,2.23,2.28,2.33,2.38,2.43
07:46:26.141,07:46:26.142,1,B,"{""TYPE"": ""LOG"", ""EVENT"": ""SCHEDULE_STOP"", ""PAYLOAD"": ""B"", ""REPEAT"": 50, ""INTERVAL"": 1.0, ""SCHEDULE"": FALSE, ""NOTE"": """"}",277,83.0,mean,1,1525,1525,2026-06-18T07:46:26.116,-25,1070665000,-33.7602548,150.7432495,58.82,0.17,93.61,2.17,2.2,2.23,2.26,2.29,2.31,2.34,2.36,2.38,2.4,2.42,2.44,2.45,2.47,2.48,2.49,2.5,2.51,2.52,2.53,2.53,2.54,2.54,2.54,2.54,2.54,2.54,2.54,2.53,2.53,2.52,2.51,2.5,2.49,2.48,2.46,2.44,2.42,2.4,2.38,2.35,2.32,2.29,2.26,2.22,2.18,2.14,2.1,2.05,2.01,1.96,1.9,1.85,1.79,1.74,1.68,1.62,1.55,1.49,1.43,1.37,1.3,1.24,1.17,1.11,1.05,0.99,0.93,0.87,0.82,0.77,0.72,0.67,0.62,0.58,0.54,0.51,0.48,0.45,0.43,0.41,0.39,0.38,0.38,0.38,0.38,0.39,0.4,0.42,0.45,0.48,0.52,0.56,0.6,0.66,0.71,0.78,0.84,0.92,1,1.08,1.17,1.26,1.36,1.46,1.57,1.68,1.79,1.91,2.03,2.15,2.27,2.39,2.52,2.64,2.76,2.88,3,3.12,3.23,3.34,3.44,3.53,3.62,3.7,3.77,3.83,3.89,3.93,3.97,3.99,4.01,4.01,4.01,4,3.98,3.96,3.93,3.89,3.84,3.8,3.74,3.69,3.63,3.57,3.51,3.45,3.39,3.33,3.27,3.21,3.15,3.09,3.03,2.98,2.92,2.87,2.82,2.77,2.73,2.68,2.64,2.59,2.55,2.51,2.47,2.43,2.39,2.35,2.31,2.27,2.23,2.19,2.15,2.1,2.06,2.01,1.97,1.92,1.87,1.81,1.76,1.71,1.65,1.59,1.53,1.47,1.41,1.35,1.28,1.22,1.16,1.09,1.03,0.97,0.9,0.84,0.78,0.72,0.66,0.6,0.54,0.49,0.44,0.39,0.34,0.3,0.25,0.22,0.18,0.15,0.12,0.09,0.06,0.04,0.03,0.02,0.01,0,0,0,0.01,0.02,0.04,0.06,0.08,0.11,0.15,0.19,0.23,0.28,0.33,0.39,0.46,0.53,0.61,0.69,0.78,0.88,0.98,1.09,1.21,1.34,1.47,1.61,1.76,1.91,2.08,2.25,2.44,2.63,2.83,3.05,3.27,3.5,3.75,4,4.27,4.55,4.83,5.13,5.44,5.76,6.08,6.41,6.75,7.09,7.43,7.76,8.08,8.39,8.67,8.92,9.14,9.31,9.43,9.49,9.5,9.44,9.34,9.18,8.98,8.74,8.47,8.18,7.88,7.57,7.26,6.94,6.63,6.32,6.02,5.73,5.44,5.17,4.91,4.66,4.42,4.19,3.97,3.77,3.57,3.38,3.21,3.04,2.88,2.73,2.59,2.46,2.34,2.23,2.12,2.02,1.93,1.85,1.77,1.7,1.64,1.58,1.53,1.48,1.44,1.4,1.37,1.35,1.33,1.31,1.3,1.29,1.29,1.29,1.29,1.3,1.31,1.32,1.34,1.36,1.38,1.4,1.43,1.46,1.49,1.52,1.55,1.59,1.62,1.66,1.7,1.74,1.77,1.81,1.85,1.89,1.93,1.96,2,2.04,2.07,2.11,2.14
